[{
  "atoll": "HA",
  "type": "Islands",
  "name": "Alidhoo",
  "alt_name": "null",
  "lat": "6.848611111",
  "lon": "73.15194444",
  "flag_1": "R",
  "flag_2": null
}, {
  "atoll": "HA",
  "type": "Islands",
  "name": "Alidhuffarufinolhu",
  "alt_name": "null",
  "lat": "6.860833333333333",
  "lon": "73.10444444",
  "flag_1": "R",
  "flag_2": null
}, {
  "atoll": "HA",
  "type": "Islands",
  "name": "Baarah",
  "alt_name": "null",
  "lat": "6.810555556",
  "lon": "73.20861111",
  "flag_1": "I",
  "flag_2": null
}, {
  "atoll": "HA",
  "type": "Islands",
  "name": "Beenaafushi",
  "alt_name": "Bibeerah",
  "lat": "6.928333333",
  "lon": "73.13638889",
  "flag_1": "U",
  "flag_2": null
}, {
  "atoll": "HA",
  "type": "Islands",
  "name": "Berinmadhoo",
  "alt_name": "null",
  "lat": "7.047222222",
  "lon": "72.97111111",
  "flag_1": "PR",
  "flag_2": null
}, {
  "atoll": "HA",
  "type": "Islands",
  "name": "Dhapparuhuraa",
  "alt_name": "null",
  "lat": "6.915277778",
  "lon": "73.21111111111111",
  "flag_1": "U",
  "flag_2": null
}, {
  "atoll": "HA",
  "type": "Islands",
  "name": "Dhihdhoo",
  "alt_name": "null",
  "lat": "6.886944444",
  "lon": "73.11333333",
  "flag_1": "I",
  "flag_2": null
}, {
  "atoll": "HA",
  "type": "Islands",
  "name": "Dhonakulhi",
  "alt_name": "null",
  "lat": "6.843055556",
  "lon": "73.05138889",
  "flag_1": "R",
  "flag_2": null
}, {
  "atoll": "HA",
  "type": "Islands",
  "name": "Filladhoo",
  "alt_name": "null",
  "lat": "6.876666666666667",
  "lon": "73.22916666666667",
  "flag_1": "I",
  "flag_2": null
}, {
  "atoll": "HA",
  "type": "Islands",
  "name": "Gaamathikulhudhoo",
  "alt_name": "null",
  "lat": "7.039166667",
  "lon": "72.98444444",
  "flag_1": "R",
  "flag_2": null
}, {
  "atoll": "HA",
  "type": "Islands",
  "name": "Gallandhoo",
  "alt_name": "null",
  "lat": "6.946666667",
  "lon": "72.98305556",
  "flag_1": "P",
  "flag_2": null
}, {
  "atoll": "HA",
  "type": "Islands",
  "name": "Govvaafushi",
  "alt_name": "null",
  "lat": "7.0125",
  "lon": "72.91916667",
  "flag_1": "U",
  "flag_2": null
}, {
  "atoll": "HA",
  "type": "Islands",
  "name": "Hathifushi",
  "alt_name": "null",
  "lat": "7.02",
  "lon": "72.83027778",
  "flag_1": "I",
  "flag_2": null
}, {
  "atoll": "HA",
  "type": "Islands",
  "name": "Huvahandhoo",
  "alt_name": "null",
  "lat": "6.958888889",
  "lon": "72.905",
  "flag_1": "U",
  "flag_2": null
}, {
  "atoll": "HA",
  "type": "Islands",
  "name": "Huvarafushi",
  "alt_name": "null",
  "lat": "6.983055556",
  "lon": "72.89472222",
  "flag_1": "I",
  "flag_2": null
}, {
  "atoll": "HA",
  "type": "Islands",
  "name": "Ihavandhoo",
  "alt_name": "null",
  "lat": "6.953055556",
  "lon": "72.92611111",
  "flag_1": "I",
  "flag_2": null
}, {
  "atoll": "HA",
  "type": "Islands",
  "name": "Innafinolhu",
  "alt_name": "null",
  "lat": "7.073611111",
  "lon": "72.81111111",
  "flag_1": null,
  "flag_2": null
}, {
  "atoll": "HA",
  "type": "Islands",
  "name": "Kan'daalifinolhu",
  "alt_name": "null",
  "lat": "6.926666666666667",
  "lon": "73.13055555555555",
  "flag_1": "U",
  "flag_2": null
}, {
  "atoll": "HA",
  "type": "Islands",
  "name": "Kelaa",
  "alt_name": "null",
  "lat": "6.954444444",
  "lon": "73.21611111",
  "flag_1": "I",
  "flag_2": null
}, {
  "atoll": "HA",
  "type": "Islands",
  "name": "Kudafinolhu",
  "alt_name": "null",
  "lat": "6.989444444444445",
  "lon": "72.88333333",
  "flag_1": "U",
  "flag_2": null
}, {
  "atoll": "HA",
  "type": "Islands",
  "name": "Maafahi",
  "alt_name": "null",
  "lat": "6.828333333",
  "lon": "73.15638889",
  "flag_1": "U",
  "flag_2": "IND"
}, {
  "atoll": "HA",
  "type": "Islands",
  "name": "Maafinolhu",
  "alt_name": "null",
  "lat": "7.002222222",
  "lon": "72.86222222",
  "flag_1": "R",
  "flag_2": null
}, {
  "atoll": "HA",
  "type": "Islands",
  "name": "Maarandhoo",
  "alt_name": "null",
  "lat": "6.8525",
  "lon": "72.98388889",
  "flag_1": "I",
  "flag_2": null
}, {
  "atoll": "HA",
  "type": "Islands",
  "name": "Maarandhoofarufinolhu",
  "alt_name": "null",
  "lat": "6.828888888888889",
  "lon": "72.97194444444445",
  "flag_1": "U",
  "flag_2": null
}, {
  "atoll": "HA",
  "type": "Islands",
  "name": "Madulu",
  "alt_name": "null",
  "lat": "7.054722222",
  "lon": "72.95305556",
  "flag_1": "U",
  "flag_2": null
}, {
  "atoll": "HA",
  "type": "Islands",
  "name": "Manafaru",
  "alt_name": "null",
  "lat": "6.996944444",
  "lon": "72.93972222",
  "flag_1": "R",
  "flag_2": null
}, {
  "atoll": "HA",
  "type": "Islands",
  "name": "Matheerah",
  "alt_name": "null",
  "lat": "7.0275",
  "lon": "72.81888889",
  "flag_1": "U",
  "flag_2": null
}, {
  "atoll": "HA",
  "type": "Islands",
  "name": "Medhafushi",
  "alt_name": "Medhufinolhu",
  "lat": "7.010555556",
  "lon": "72.93388889",
  "flag_1": "R",
  "flag_2": null
}, {
  "atoll": "HA",
  "type": "Islands",
  "name": "Mulhadhoo",
  "alt_name": "null",
  "lat": "7.011944444",
  "lon": "72.99805556",
  "flag_1": "I",
  "flag_2": null
}, {
  "atoll": "HA",
  "type": "Islands",
  "name": "Mulidhoo",
  "alt_name": "null",
  "lat": "6.836111111",
  "lon": "73.01111111",
  "flag_1": "U",
  "flag_2": null
}, {
  "atoll": "HA",
  "type": "Islands",
  "name": "Muraidhoo",
  "alt_name": "null",
  "lat": "6.837777778",
  "lon": "73.16694444",
  "flag_1": "I",
  "flag_2": null
}, {
  "atoll": "HA",
  "type": "Islands",
  "name": "Naridhoo",
  "alt_name": "null",
  "lat": "6.895",
  "lon": "73.12666667",
  "flag_1": "R",
  "flag_2": null
}, {
  "atoll": "HA",
  "type": "Islands",
  "name": "Thakandhoo",
  "alt_name": "null",
  "lat": "6.843888889",
  "lon": "72.99527778",
  "flag_1": "I",
  "flag_2": null
}, {
  "atoll": "HA",
  "type": "Islands",
  "name": "Thuraakunu",
  "alt_name": "null",
  "lat": "7.103888889",
  "lon": "72.89916667",
  "flag_1": "I",
  "flag_2": null
}, {
  "atoll": "HA",
  "type": "Islands",
  "name": "Uligamu",
  "alt_name": "null",
  "lat": "7.081944444",
  "lon": "72.92722222",
  "flag_1": "I",
  "flag_2": "H"
}, {
  "atoll": "HA",
  "type": "Islands",
  "name": "Un'gulifinolhu",
  "alt_name": "null",
  "lat": "6.971111111111111",
  "lon": "72.90138888888889",
  "flag_1": "U",
  "flag_2": null
}, {
  "atoll": "HA",
  "type": "Islands",
  "name": "Utheemu",
  "alt_name": "null",
  "lat": "6.834722222",
  "lon": "73.1125",
  "flag_1": "I",
  "flag_2": null
}, {
  "atoll": "HA",
  "type": "Islands",
  "name": "Van'gaaru",
  "alt_name": "null",
  "lat": "7.093055556",
  "lon": "72.87805556",
  "flag_1": "R",
  "flag_2": null
}, {
  "atoll": "HA",
  "type": "Islands",
  "name": "Vashafaru",
  "alt_name": "null",
  "lat": "6.8975",
  "lon": "73.16083333",
  "flag_1": "I",
  "flag_2": null
}, {
  "atoll": "HA",
  "type": "Islands",
  "name": "Velifinolhu",
  "alt_name": "null",
  "lat": "6.994166667",
  "lon": "72.87444444",
  "flag_1": "U",
  "flag_2": null
}, {
  "atoll": "HA",
  "type": "Knoll (Thila)",
  "name": "Gaafushi",
  "alt_name": "null",
  "lat": "6.851944444",
  "lon": "73.0575",
  "flag_1": "U",
  "flag_2": null
}, {
  "atoll": "HA",
  "type": "Sand Bank",
  "name": "Dhigufaruhuraa",
  "alt_name": "null",
  "lat": "6.925277777777778",
  "lon": "72.96972222222223",
  "flag_1": "U",
  "flag_2": null
}, {
  "atoll": "HA",
  "type": "Sand Bank",
  "name": "Umuraiyfinolhu",
  "alt_name": "null",
  "lat": "7.009444444",
  "lon": "72.85083333",
  "flag_1": "U",
  "flag_2": null
}, {
  "atoll": "HDH",
  "type": "Islands",
  "name": "Dhipparufushi",
  "alt_name": "null",
  "lat": "6.318888889",
  "lon": "72.64055556",
  "flag_1": "U",
  "flag_2": null
}, {
  "atoll": "HDH",
  "type": "Islands",
  "name": "Faridhoo",
  "alt_name": "null",
  "lat": "6.784722222",
  "lon": "73.05388889",
  "flag_1": "I",
  "flag_2": null
}, {
  "atoll": "HDH",
  "type": "Islands",
  "name": "Fenboahuraa",
  "alt_name": "null",
  "lat": "6.396388889",
  "lon": "72.69444444",
  "flag_1": "U",
  "flag_2": null
}, {
  "atoll": "HDH",
  "type": "Islands",
  "name": "Finey",
  "alt_name": "null",
  "lat": "6.745833333",
  "lon": "73.05305556",
  "flag_1": "I",
  "flag_2": null
}, {
  "atoll": "HDH",
  "type": "Islands",
  "name": "Hanimaadhoo",
  "alt_name": "null",
  "lat": "6.756111111",
  "lon": "73.17305556",
  "flag_1": "I",
  "flag_2": null
}, {
  "atoll": "HDH",
  "type": "Islands",
  "name": "Hirimaradhoo",
  "alt_name": "null",
  "lat": "6.724722222",
  "lon": "73.02388889",
  "flag_1": "I",
  "flag_2": null
}, {
  "atoll": "HDH",
  "type": "Islands",
  "name": "Hirinaidhoo",
  "alt_name": "null",
  "lat": "6.701666667",
  "lon": "72.94805556",
  "flag_1": "U",
  "flag_2": null
}, {
  "atoll": "HDH",
  "type": "Islands",
  "name": "Hon'daafushi",
  "alt_name": "null",
  "lat": "6.778055556",
  "lon": "73.12138889",
  "flag_1": "PR",
  "flag_2": null
}, {
  "atoll": "HDH",
  "type": "Islands",
  "name": "Hon'daidhoo",
  "alt_name": "null",
  "lat": "6.769722222",
  "lon": "73.08722222",
  "flag_1": "U",
  "flag_2": "IND"
}, {
  "atoll": "HDH",
  "type": "Islands",
  "name": "Innafushi",
  "alt_name": "null",
  "lat": "6.408888889",
  "lon": "72.64527778",
  "flag_1": "P",
  "flag_2": null
}, {
  "atoll": "HDH",
  "type": "Islands",
  "name": "Kanamana",
  "alt_name": "null",
  "lat": "6.705",
  "lon": "72.89916667",
  "flag_1": "U",
  "flag_2": null
}, {
  "atoll": "HDH",
  "type": "Islands",
  "name": "Kattalafushi",
  "alt_name": "null",
  "lat": "6.566666666666666",
  "lon": "72.98305555555555",
  "flag_1": "U",
  "flag_2": null
}, {
  "atoll": "HDH",
  "type": "Islands",
  "name": "Keylakunu",
  "alt_name": "null",
  "lat": "6.6025",
  "lon": "73.00888889",
  "flag_1": "U",
  "flag_2": null
}, {
  "atoll": "HDH",
  "type": "Islands",
  "name": "Kudafarufasgandu",
  "alt_name": "null",
  "lat": "6.711944444444445",
  "lon": "72.92500000000001",
  "flag_1": "R",
  "flag_2": null
}, {
  "atoll": "HDH",
  "type": "Islands",
  "name": "Kudamuraidhoo",
  "alt_name": "null",
  "lat": "6.642777778",
  "lon": "72.92",
  "flag_1": "U",
  "flag_2": null
}, {
  "atoll": "HDH",
  "type": "Islands",
  "name": "Kulhudhuffushi",
  "alt_name": "null",
  "lat": "6.623333333",
  "lon": "73.06972222",
  "flag_1": "I",
  "flag_2": null
}, {
  "atoll": "HDH",
  "type": "Islands",
  "name": "Kumundhoo",
  "alt_name": "null",
  "lat": "6.571944444",
  "lon": "73.05222222",
  "flag_1": "I",
  "flag_2": null
}, {
  "atoll": "HDH",
  "type": "Islands",
  "name": "Kun'burudhoo",
  "alt_name": "null",
  "lat": "6.658055556",
  "lon": "73.02722222",
  "flag_1": "I",
  "flag_2": null
}, {
  "atoll": "HDH",
  "type": "Islands",
  "name": "Kurin'bee",
  "alt_name": "null",
  "lat": "6.665277778",
  "lon": "72.99638889",
  "flag_1": "I",
  "flag_2": null
}, {
  "atoll": "HDH",
  "type": "Islands",
  "name": "Maavaidhoo",
  "alt_name": "null",
  "lat": "6.515277778",
  "lon": "73.05361111",
  "flag_1": "I",
  "flag_2": null
}, {
  "atoll": "HDH",
  "type": "Islands",
  "name": "Makunudhoo",
  "alt_name": "null",
  "lat": "6.409444444",
  "lon": "72.705",
  "flag_1": "I",
  "flag_2": null
}, {
  "atoll": "HDH",
  "type": "Islands",
  "name": "Muiri",
  "alt_name": "null",
  "lat": "6.658055556",
  "lon": "72.93638889",
  "flag_1": "R",
  "flag_2": null
}, {
  "atoll": "HDH",
  "type": "Islands",
  "name": "Naagoashi",
  "alt_name": "null",
  "lat": "6.669722222",
  "lon": "72.90222222",
  "flag_1": "PR",
  "flag_2": null
}, {
  "atoll": "HDH",
  "type": "Islands",
  "name": "Naivaadhoo",
  "alt_name": "null",
  "lat": "6.746666667",
  "lon": "72.93472222",
  "flag_1": "I",
  "flag_2": null
}, {
  "atoll": "HDH",
  "type": "Islands",
  "name": "Nellaidhoo",
  "alt_name": "null",
  "lat": "6.714722222",
  "lon": "72.94666667",
  "flag_1": "I",
  "flag_2": null
}, {
  "atoll": "HDH",
  "type": "Islands",
  "name": "Neykurendhoo",
  "alt_name": "null",
  "lat": "6.542222222",
  "lon": "72.98027778",
  "flag_1": "I",
  "flag_2": null
}, {
  "atoll": "HDH",
  "type": "Islands",
  "name": "Nolhivaramu",
  "alt_name": "null",
  "lat": "6.662222222",
  "lon": "73.08194444",
  "flag_1": "I",
  "flag_2": null
}, {
  "atoll": "HDH",
  "type": "Islands",
  "name": "Nolhivaranfaru",
  "alt_name": "null",
  "lat": "6.696944444",
  "lon": "73.12",
  "flag_1": "I",
  "flag_2": null
}, {
  "atoll": "HDH",
  "type": "Islands",
  "name": "Ruffushi",
  "alt_name": "null",
  "lat": "6.758611111111111",
  "lon": "72.9388888888889",
  "flag_1": "U",
  "flag_2": null
}, {
  "atoll": "HDH",
  "type": "Islands",
  "name": "Theefaridhoo",
  "alt_name": "null",
  "lat": "6.740277778",
  "lon": "73.03333333",
  "flag_1": "U",
  "flag_2": "IND"
}, {
  "atoll": "HDH",
  "type": "Islands",
  "name": "Vaikaradhoo",
  "alt_name": "null",
  "lat": "6.549444444",
  "lon": "72.95305556",
  "flag_1": "I",
  "flag_2": null
}, {
  "atoll": "HDH",
  "type": "Islands",
  "name": "Vaikaramuraidhoo",
  "alt_name": "null",
  "lat": "6.540555556",
  "lon": "72.89805556",
  "flag_1": "U",
  "flag_2": "IND"
}, {
  "atoll": "HDH",
  "type": "Islands",
  "name": "Veligan'du",
  "alt_name": "VeligauU",
  "lat": "6.754444444444444",
  "lon": "72.93833333333333",
  "flag_1": null,
  "flag_2": null
}, {
  "atoll": "HDH",
  "type": "Islands",
  "name": "Kuredhigadu",
  "alt_name": "Huskuredhi",
  "lat": "6.678513888888889",
  "lon": "73.10510277777777",
  "flag_1": null,
  "flag_2": null
}, {
  "atoll": "SH",
  "type": "Islands",
  "name": "Bileiyfahi",
  "alt_name": "null",
  "lat": "6.338055556",
  "lon": "72.975",
  "flag_1": "I",
  "flag_2": null
}, {
  "atoll": "SH",
  "type": "Islands",
  "name": "Bis alhaahuraa",
  "alt_name": "null",
  "lat": "6.155",
  "lon": "73.2925",
  "flag_1": "U",
  "flag_2": null
}, {
  "atoll": "SH",
  "type": "Islands",
  "name": "Boduhuraa",
  "alt_name": "null",
  "lat": "6.071666667",
  "lon": "73.04388888888889",
  "flag_1": "U",
  "flag_2": null
}, {
  "atoll": "SH",
  "type": "Islands",
  "name": "Bolissafaru",
  "alt_name": "null",
  "lat": "5.980833333",
  "lon": "73.11083333",
  "flag_1": "P",
  "flag_2": null
}, {
  "atoll": "SH",
  "type": "Islands",
  "name": "Dhigurah",
  "alt_name": "null",
  "lat": "6.029444444444445",
  "lon": "73.06861111",
  "flag_1": "U",
  "flag_2": null
}, {
  "atoll": "SH",
  "type": "Islands",
  "name": "Dholhiyadhoo",
  "alt_name": "null",
  "lat": "5.9944444444444445",
  "lon": "73.21111111111111",
  "flag_1": "R",
  "flag_2": null
}, {
  "atoll": "SH",
  "type": "Islands",
  "name": "Dholhiyadhookudarah",
  "alt_name": "null",
  "lat": "5.99",
  "lon": "73.22416666666666",
  "flag_1": "U",
  "flag_2": null
}, {
  "atoll": "SH",
  "type": "Islands",
  "name": "Dhonvelihuraa",
  "alt_name": "Thahbeyhuraa",
  "lat": "6.184166667",
  "lon": "73.29861111",
  "flag_1": "U",
  "flag_2": null
}, {
  "atoll": "SH",
  "type": "Islands",
  "name": "Ekasdhoo",
  "alt_name": "null",
  "lat": "6.070833333",
  "lon": "73.28444444",
  "flag_1": "U",
  "flag_2": "IND"
}, {
  "atoll": "SH",
  "type": "Islands",
  "name": "Eriadhoo",
  "alt_name": "null",
  "lat": "6.103888889",
  "lon": "73.28694444",
  "flag_1": "U",
  "flag_2": "IND"
}, {
  "atoll": "SH",
  "type": "Islands",
  "name": "Farukolhu",
  "alt_name": "null",
  "lat": "6.191666667",
  "lon": "73.2975",
  "flag_1": "PR",
  "flag_2": "ADF,H"
}, {
  "atoll": "SH",
  "type": "Islands",
  "name": "Feevah",
  "alt_name": "null",
  "lat": "6.348888889",
  "lon": "73.20916667",
  "flag_1": "I",
  "flag_2": null
}, {
  "atoll": "SH",
  "type": "Islands",
  "name": "Feydhoo",
  "alt_name": "null",
  "lat": "6.360555556",
  "lon": "73.04861111",
  "flag_1": "I",
  "flag_2": null
}, {
  "atoll": "SH",
  "type": "Islands",
  "name": "Firubaidhoo",
  "alt_name": "null",
  "lat": "6.114166667",
  "lon": "73.2275",
  "flag_1": "U",
  "flag_2": null
}, {
  "atoll": "SH",
  "type": "Islands",
  "name": "Foakaidhoo",
  "alt_name": "null",
  "lat": "6.326388889",
  "lon": "73.14916667",
  "flag_1": "I",
  "flag_2": null
}, {
  "atoll": "SH",
  "type": "Islands",
  "name": "Funadhoo",
  "alt_name": "null",
  "lat": "6.149166667",
  "lon": "73.29027778",
  "flag_1": "I",
  "flag_2": null
}, {
  "atoll": "SH",
  "type": "Islands",
  "name": "Fushifaru",
  "alt_name": "null",
  "lat": "6.395277778",
  "lon": "72.92583333",
  "flag_1": "R",
  "flag_2": null
}, {
  "atoll": "SH",
  "type": "Islands",
  "name": "Gaakoshibi",
  "alt_name": "null",
  "lat": "6.286388889",
  "lon": "73.01194444",
  "flag_1": "R",
  "flag_2": null
}, {
  "atoll": "SH",
  "type": "Islands",
  "name": "Gallaidhoo",
  "alt_name": "null",
  "lat": "5.968888889",
  "lon": "73.12444444",
  "flag_1": "U",
  "flag_2": null
}, {
  "atoll": "SH",
  "type": "Islands",
  "name": "Goidhoo",
  "alt_name": "null",
  "lat": "6.43",
  "lon": "72.92972222",
  "flag_1": "I",
  "flag_2": null
}, {
  "atoll": "SH",
  "type": "Islands",
  "name": "Gonaafarufinolhu",
  "alt_name": "null",
  "lat": "6.465555556",
  "lon": "72.89888889",
  "flag_1": "U",
  "flag_2": null
}, {
  "atoll": "SH",
  "type": "Islands",
  "name": "Horubadhoo",
  "alt_name": "Hirubadhoo",
  "lat": "6.187777778",
  "lon": "73.24527778",
  "flag_1": "U",
  "flag_2": null
}, {
  "atoll": "SH",
  "type": "Islands",
  "name": "Hurasfaru",
  "alt_name": "null",
  "lat": "6.139722222",
  "lon": "73.03722222",
  "flag_1": "U",
  "flag_2": null
}, {
  "atoll": "SH",
  "type": "Islands",
  "name": "Kakaa eriyadhoo",
  "alt_name": "null",
  "lat": "6.477777778",
  "lon": "72.90222222",
  "flag_1": "U",
  "flag_2": null
}, {
  "atoll": "SH",
  "type": "Islands",
  "name": "Kan'baalifaru",
  "alt_name": "null",
  "lat": "6.123611111111111",
  "lon": "73.25555555555556",
  "flag_1": "PR",
  "flag_2": null
}, {
  "atoll": "SH",
  "type": "Islands",
  "name": "Kan'ditheemu",
  "alt_name": "null",
  "lat": "6.440277778",
  "lon": "72.91638889",
  "flag_1": "I",
  "flag_2": null
}, {
  "atoll": "SH",
  "type": "Islands",
  "name": "Keekimini",
  "alt_name": "null",
  "lat": "6.007222222",
  "lon": "73.11166667",
  "flag_1": "U",
  "flag_2": "IND"
}, {
  "atoll": "SH",
  "type": "Islands",
  "name": "Komandoo",
  "alt_name": "null",
  "lat": "6.053888889",
  "lon": "73.05416667",
  "flag_1": "I",
  "flag_2": null
}, {
  "atoll": "SH",
  "type": "Islands",
  "name": "Kudadhoo",
  "alt_name": "null",
  "lat": "6.435833333",
  "lon": "72.90722222",
  "flag_1": "U",
  "flag_2": null
}, {
  "atoll": "SH",
  "type": "Islands",
  "name": "Kudafarufinolhu",
  "alt_name": "null",
  "lat": "6.064444444444444",
  "lon": "73.04444444444444",
  "flag_1": "U",
  "flag_2": null
}, {
  "atoll": "SH",
  "type": "Islands",
  "name": "Kudalhaimendhoo",
  "alt_name": "null",
  "lat": "6.015",
  "lon": "73.29555556",
  "flag_1": "R",
  "flag_2": null
}, {
  "atoll": "SH",
  "type": "Islands",
  "name": "Lhaimagu",
  "alt_name": "null",
  "lat": "6.163888889",
  "lon": "73.25138889",
  "flag_1": "I",
  "flag_2": null
}, {
  "atoll": "SH",
  "type": "Islands",
  "name": "Maakan'doodhoo",
  "alt_name": "null",
  "lat": "6.234722222",
  "lon": "73.26722222",
  "flag_1": "U",
  "flag_2": null
}, {
  "atoll": "SH",
  "type": "Islands",
  "name": "Maaun'goodhoo",
  "alt_name": "null",
  "lat": "6.036666667",
  "lon": "73.28361111",
  "flag_1": "I",
  "flag_2": null
}, {
  "atoll": "SH",
  "type": "Islands",
  "name": "Madidhoo",
  "alt_name": "null",
  "lat": "6.3025",
  "lon": "73.10888889",
  "flag_1": "U",
  "flag_2": "IND"
}, {
  "atoll": "SH",
  "type": "Islands",
  "name": "Madikurehdhoo",
  "alt_name": "null",
  "lat": "6.284166667",
  "lon": "73.15083333",
  "flag_1": "U",
  "flag_2": "IND"
}, {
  "atoll": "SH",
  "type": "Islands",
  "name": "Mairah",
  "alt_name": "Dhiguvelidhoo",
  "lat": "6.019166667",
  "lon": "73.08777778",
  "flag_1": "U",
  "flag_2": null
}, {
  "atoll": "SH",
  "type": "Islands",
  "name": "Maroshi",
  "alt_name": "null",
  "lat": "6.209444444",
  "lon": "73.06111111",
  "flag_1": "I",
  "flag_2": null
}, {
  "atoll": "SH",
  "type": "Islands",
  "name": "Mathikomandoo",
  "alt_name": "null",
  "lat": "6.056944444",
  "lon": "73.04583333",
  "flag_1": "U",
  "flag_2": null
}, {
  "atoll": "SH",
  "type": "Islands",
  "name": "Medhukun'burudhoo",
  "alt_name": "null",
  "lat": "6.196944444",
  "lon": "73.03",
  "flag_1": "U",
  "flag_2": "IND"
}, {
  "atoll": "SH",
  "type": "Islands",
  "name": "Medhurah",
  "alt_name": "null",
  "lat": "6.023055555555556",
  "lon": "73.07888888888888",
  "flag_1": "U",
  "flag_2": null
}, {
  "atoll": "SH",
  "type": "Islands",
  "name": "Migoodhoo",
  "alt_name": "null",
  "lat": "6.228611111",
  "lon": "73.24111111",
  "flag_1": "U",
  "flag_2": null
}, {
  "atoll": "SH",
  "type": "Islands",
  "name": "Milandhoo",
  "alt_name": "null",
  "lat": "6.286111111",
  "lon": "73.24444444",
  "flag_1": "I",
  "flag_2": null
}, {
  "atoll": "SH",
  "type": "Islands",
  "name": "Naainfarufinolhu",
  "alt_name": "null",
  "lat": "6.203055555555555",
  "lon": "72.99861111111112",
  "flag_1": "U",
  "flag_2": null
}, {
  "atoll": "SH",
  "type": "Islands",
  "name": "Naalaahuraa",
  "alt_name": "null",
  "lat": "6.127777777777777",
  "lon": "73.0363888888889",
  "flag_1": "P",
  "flag_2": null
}, {
  "atoll": "SH",
  "type": "Islands",
  "name": "Nalandhoo",
  "alt_name": "null",
  "lat": "6.324444444",
  "lon": "73.22888889",
  "flag_1": "U",
  "flag_2": "IND"
}, {
  "atoll": "SH",
  "type": "Islands",
  "name": "Narudhoo",
  "alt_name": "null",
  "lat": "6.264166667",
  "lon": "73.21777778",
  "flag_1": "I",
  "flag_2": null
}, {
  "atoll": "SH",
  "type": "Islands",
  "name": "Narurin'budhoo",
  "alt_name": "null",
  "lat": "6.279166667",
  "lon": "73.19555556",
  "flag_1": "U",
  "flag_2": null
}, {
  "atoll": "SH",
  "type": "Islands",
  "name": "Neyo",
  "alt_name": "null",
  "lat": "6.45",
  "lon": "73.05972222",
  "flag_1": "U",
  "flag_2": null
}, {
  "atoll": "SH",
  "type": "Islands",
  "name": "Noomaraa",
  "alt_name": "null",
  "lat": "6.433888889",
  "lon": "73.06888889",
  "flag_1": "I",
  "flag_2": null
}, {
  "atoll": "SH",
  "type": "Islands",
  "name": "Raggan'duhuraa",
  "alt_name": "null",
  "lat": "6.111944444444444",
  "lon": "73.03833333333333",
  "flag_1": "U",
  "flag_2": null
}, {
  "atoll": "SH",
  "type": "Islands",
  "name": "Vagaru",
  "alt_name": "null",
  "lat": "6.089444444444444",
  "lon": "73.2038888888889",
  "flag_1": "PR",
  "flag_2": null
}, {
  "atoll": "SH",
  "type": "Islands",
  "name": "Naainfaru",
  "alt_name": "null",
  "lat": "6.203055555555555",
  "lon": "72.99861111111112",
  "flag_1": "U",
  "flag_2": null
}, {
  "atoll": "N",
  "type": "Islands",
  "name": "Ban'daidhidhdhoo",
  "alt_name": "null",
  "lat": "5.685277778",
  "lon": "73.2575",
  "flag_1": "U",
  "flag_2": "IND"
}, {
  "atoll": "N",
  "type": "Islands",
  "name": "Bodufushi falhu)",
  "alt_name": "Ehdhupparu",
  "lat": "5.698611111",
  "lon": "73.41138889",
  "flag_1": "U",
  "flag_2": null
}, {
  "atoll": "N",
  "type": "Islands",
  "name": "Bodulhaimendhoo",
  "alt_name": "null",
  "lat": "6",
  "lon": "73.30277778",
  "flag_1": "U",
  "flag_2": null
}, {
  "atoll": "N",
  "type": "Islands",
  "name": "Kalaidhoo",
  "alt_name": "null",
  "lat": "5.983333333",
  "lon": "73.32333333",
  "flag_1": "U",
  "flag_2": null
}, {
  "atoll": "N",
  "type": "Islands",
  "name": "Burehifasdhoo",
  "alt_name": "null",
  "lat": "5.965277778",
  "lon": "73.36805556",
  "flag_1": "U",
  "flag_2": null
}, {
  "atoll": "N",
  "type": "Islands",
  "name": "Dheefuram",
  "alt_name": "null",
  "lat": "5.8875",
  "lon": "73.31805556",
  "flag_1": "U",
  "flag_2": null
}, {
  "atoll": "N",
  "type": "Islands",
  "name": "Dhekenanfaru",
  "alt_name": "null",
  "lat": "5.92",
  "lon": "73.15638889",
  "flag_1": "U",
  "flag_2": null
}, {
  "atoll": "N",
  "type": "Islands",
  "name": "Dhelibe ruh elhihuraa",
  "alt_name": "null",
  "lat": "5.807222222222222",
  "lon": "73.45666666666666",
  "flag_1": "U",
  "flag_2": null
}, {
  "atoll": "N",
  "type": "Islands",
  "name": "Dhigurah",
  "alt_name": "null",
  "lat": "5.732222222",
  "lon": "73.35916667",
  "flag_1": "U",
  "flag_2": null
}, {
  "atoll": "N",
  "type": "Islands",
  "name": "Dhonaeri kan'doodhoo",
  "alt_name": "null",
  "lat": "5.646111111",
  "lon": "73.32916667",
  "flag_1": "U",
  "flag_2": null
}, {
  "atoll": "N",
  "type": "Islands",
  "name": "Ehdhuffaru mairah",
  "alt_name": "null",
  "lat": "5.695277778",
  "lon": "73.40833333",
  "flag_1": "U",
  "flag_2": "IND"
}, {
  "atoll": "N",
  "type": "Islands",
  "name": "Ekulhivaru",
  "alt_name": "null",
  "lat": "5.949722222",
  "lon": "73.30694444",
  "flag_1": "PR",
  "flag_2": null
}, {
  "atoll": "N",
  "type": "Islands",
  "name": "Farumuli",
  "alt_name": "null",
  "lat": "5.864722222",
  "lon": "73.47527778",
  "flag_1": "U",
  "flag_2": null
}, {
  "atoll": "N",
  "type": "Islands",
  "name": "Felivaru",
  "alt_name": "null",
  "lat": "5.835555556",
  "lon": "73.30611111",
  "flag_1": "U",
  "flag_2": "IND"
}, {
  "atoll": "N",
  "type": "Islands",
  "name": "Fohdhipparu",
  "alt_name": "null",
  "lat": "5.753611111111111",
  "lon": "73.20833333333334",
  "flag_1": "P",
  "flag_2": null
}, {
  "atoll": "N",
  "type": "Islands",
  "name": "Fohdhoo",
  "alt_name": "null",
  "lat": "5.743333333",
  "lon": "73.21583333",
  "flag_1": "I",
  "flag_2": null
}, {
  "atoll": "N",
  "type": "Islands",
  "name": "Orimasvaru",
  "alt_name": "null",
  "lat": "5.8630555555555555",
  "lon": "73.20666666666666",
  "flag_1": "U",
  "flag_2": null
}, {
  "atoll": "N",
  "type": "Islands",
  "name": "Goan'bilivaadhoo",
  "alt_name": "null",
  "lat": "5.8225",
  "lon": "73.38722222",
  "flag_1": "U",
  "flag_2": null
}, {
  "atoll": "N",
  "type": "Islands",
  "name": "Hen'badhoo",
  "alt_name": "null",
  "lat": "5.967222222",
  "lon": "73.39277778",
  "flag_1": "I",
  "flag_2": null
}, {
  "atoll": "N",
  "type": "Islands",
  "name": "Holhudhoo",
  "alt_name": "null",
  "lat": "5.754722222",
  "lon": "73.26277778",
  "flag_1": "I",
  "flag_2": null
}, {
  "atoll": "N",
  "type": "Islands",
  "name": "Holhumeedhoo",
  "alt_name": "null",
  "lat": "5.751111111",
  "lon": "73.24916667",
  "flag_1": "U",
  "flag_2": null
}, {
  "atoll": "N",
  "type": "Islands",
  "name": "Huivani",
  "alt_name": "null",
  "lat": "5.913333333",
  "lon": "73.31555556",
  "flag_1": "R",
  "flag_2": null
}, {
  "atoll": "N",
  "type": "Islands",
  "name": "Hulhuhdhoo",
  "alt_name": "null",
  "lat": "5.815",
  "lon": "73.31861111",
  "flag_1": "U",
  "flag_2": null
}, {
  "atoll": "N",
  "type": "Islands",
  "name": "Huvan'dhumaavattaru",
  "alt_name": "null",
  "lat": "5.845",
  "lon": "73.445",
  "flag_1": "R",
  "flag_2": null
}, {
  "atoll": "N",
  "type": "Islands",
  "name": "In'guraidhoo",
  "alt_name": "null",
  "lat": "5.796944444",
  "lon": "73.34444444",
  "flag_1": "U",
  "flag_2": null
}, {
  "atoll": "N",
  "type": "Islands",
  "name": "Kaalhugemendhoo",
  "alt_name": "Gemendhoo",
  "lat": "5.787222222222222",
  "lon": "73.35388888888889",
  "flag_1": "U",
  "flag_2": null
}, {
  "atoll": "N",
  "type": "Islands",
  "name": "Kafakomandoo",
  "alt_name": "null",
  "lat": "5.961944444",
  "lon": "73.38611111",
  "flag_1": "U",
  "flag_2": null
}, {
  "atoll": "N",
  "type": "Islands",
  "name": "Bomasdhoo",
  "alt_name": "null",
  "lat": "5.9725",
  "lon": "73.34555556",
  "flag_1": "U",
  "flag_2": null
}, {
  "atoll": "N",
  "type": "Islands",
  "name": "Kan'dinmaahuraa",
  "alt_name": "null",
  "lat": "5.8575",
  "lon": "73.48027777777779",
  "flag_1": "U",
  "flag_2": null
}, {
  "atoll": "N",
  "type": "Islands",
  "name": "Karinma",
  "alt_name": "null",
  "lat": "5.658888888888889",
  "lon": "73.37222222222222",
  "flag_1": "U",
  "flag_2": null
}, {
  "atoll": "N",
  "type": "Islands",
  "name": "Karinmavattaru",
  "alt_name": "null",
  "lat": "5.67",
  "lon": "73.38694444",
  "flag_1": "U",
  "flag_2": "IND"
}, {
  "atoll": "N",
  "type": "Islands",
  "name": "Kedhivaru",
  "alt_name": "null",
  "lat": "5.851944444",
  "lon": "73.33611111",
  "flag_1": "U",
  "flag_2": null
}, {
  "atoll": "N",
  "type": "Islands",
  "name": "Ken'dhikulhudhoo",
  "alt_name": "null",
  "lat": "5.952222222",
  "lon": "73.41583333",
  "flag_1": "I",
  "flag_2": null
}, {
  "atoll": "N",
  "type": "Islands",
  "name": "Kudafari",
  "alt_name": "null",
  "lat": "5.8825",
  "lon": "73.4",
  "flag_1": "I",
  "flag_2": null
}, {
  "atoll": "N",
  "type": "Islands",
  "name": "Kudafunafaru",
  "alt_name": "Kudafarumaafaru",
  "lat": "5.885277778",
  "lon": "73.37777778",
  "flag_1": "R",
  "flag_2": null
}, {
  "atoll": "N",
  "type": "Islands",
  "name": "Kudafushi",
  "alt_name": "Ehdhupparufalhu",
  "lat": "5.703055555555555",
  "lon": "73.41277777777778",
  "flag_1": "U",
  "flag_2": null
}, {
  "atoll": "N",
  "type": "Islands",
  "name": "Kunnumala",
  "alt_name": "null",
  "lat": "5.952777778",
  "lon": "73.13305556",
  "flag_1": "R",
  "flag_2": null
}, {
  "atoll": "N",
  "type": "Islands",
  "name": "Kuramaadhoo",
  "alt_name": "null",
  "lat": "5.873055556",
  "lon": "73.14361111",
  "flag_1": "U",
  "flag_2": "IND"
}, {
  "atoll": "N",
  "type": "Islands",
  "name": "Kuredhivaru",
  "alt_name": "null",
  "lat": "5.875",
  "lon": "73.34305556",
  "flag_1": "U",
  "flag_2": null
}, {
  "atoll": "N",
  "type": "Islands",
  "name": "Landhoo",
  "alt_name": "null",
  "lat": "5.881388889",
  "lon": "73.46611111",
  "flag_1": "I",
  "flag_2": null
}, {
  "atoll": "N",
  "type": "Islands",
  "name": "Lhohi",
  "alt_name": "null",
  "lat": "5.816111111",
  "lon": "73.3775",
  "flag_1": "I",
  "flag_2": null
}, {
  "atoll": "N",
  "type": "Islands",
  "name": "Loafaru",
  "alt_name": "null",
  "lat": "5.785555556",
  "lon": "73.27583333",
  "flag_1": "U",
  "flag_2": null
}, {
  "atoll": "N",
  "type": "Islands",
  "name": "Maafaru H)",
  "alt_name": "ADF,",
  "lat": "5.833611111111111",
  "lon": "73.48111111111112",
  "flag_1": "I",
  "flag_2": null
}, {
  "atoll": "N",
  "type": "Islands",
  "name": "Maafunafaru",
  "alt_name": "null",
  "lat": "5.860833333",
  "lon": "73.36611111",
  "flag_1": "U",
  "flag_2": null
}, {
  "atoll": "N",
  "type": "Islands",
  "name": "Maakanaafushi",
  "alt_name": "Ehdhupparufalhu",
  "lat": "5.727777777777778",
  "lon": "73.41611111111112",
  "flag_1": "U",
  "flag_2": null
}, {
  "atoll": "N",
  "type": "Islands",
  "name": "Maakurehdhoo",
  "alt_name": "null",
  "lat": "5.696388889",
  "lon": "73.31166667",
  "flag_1": "U",
  "flag_2": "IND"
}, {
  "atoll": "N",
  "type": "Islands",
  "name": "Maalhendhoo",
  "alt_name": "null",
  "lat": "5.901944444",
  "lon": "73.45611111",
  "flag_1": "I",
  "flag_2": null
}, {
  "atoll": "N",
  "type": "Islands",
  "name": "Maavahdhoo",
  "alt_name": "null",
  "lat": "5.814722222",
  "lon": "73.32611111",
  "flag_1": "U",
  "flag_2": null
}, {
  "atoll": "N",
  "type": "Islands",
  "name": "Maavelavaru",
  "alt_name": "null",
  "lat": "5.805277778",
  "lon": "73.17138889",
  "flag_1": "PR",
  "flag_2": null
}, {
  "atoll": "N",
  "type": "Islands",
  "name": "Magoodhoo",
  "alt_name": "null",
  "lat": "5.776388889",
  "lon": "73.36222222",
  "flag_1": "I",
  "flag_2": null
}, {
  "atoll": "N",
  "type": "Islands",
  "name": "Manadhoo",
  "alt_name": "null",
  "lat": "5.765555556",
  "lon": "73.41055556",
  "flag_1": "I",
  "flag_2": null
}, {
  "atoll": "N",
  "type": "Islands",
  "name": "Medhafushi",
  "alt_name": "null",
  "lat": "5.744166667",
  "lon": "73.32388889",
  "flag_1": "R",
  "flag_2": null
}, {
  "atoll": "N",
  "type": "Islands",
  "name": "Medhufaru",
  "alt_name": "null",
  "lat": "5.713333333",
  "lon": "73.41472222",
  "flag_1": "R",
  "flag_2": null
}, {
  "atoll": "N",
  "type": "Islands",
  "name": "Miladhoo",
  "alt_name": "null",
  "lat": "5.790555555555556",
  "lon": "73.3625",
  "flag_1": "I",
  "flag_2": null
}, {
  "atoll": "N",
  "type": "Islands",
  "name": "Minaavaru",
  "alt_name": "null",
  "lat": "5.768333333",
  "lon": "73.34333333",
  "flag_1": "U",
  "flag_2": "IND"
}, {
  "atoll": "N",
  "type": "Islands",
  "name": "Fushivelavaru",
  "alt_name": "null",
  "lat": "5.8308333333333335",
  "lon": "73.20916666666668",
  "flag_1": "U",
  "flag_2": null
}, {
  "atoll": "N",
  "type": "Islands",
  "name": "Orivaru",
  "alt_name": "null",
  "lat": "5.801944444",
  "lon": "73.2975",
  "flag_1": "U",
  "flag_2": null
}, {
  "atoll": "N",
  "type": "Islands",
  "name": "Orivarukudarah",
  "alt_name": "Rasgefushi",
  "lat": "5.800833333333333",
  "lon": "73.2936111111111",
  "flag_1": "U",
  "flag_2": null
}, {
  "atoll": "N",
  "type": "Islands",
  "name": "Raafushi",
  "alt_name": "null",
  "lat": "5.647777778",
  "lon": "73.29861111",
  "flag_1": "U",
  "flag_2": null
}, {
  "atoll": "N",
  "type": "Islands",
  "name": "Raalhulaakolhu",
  "alt_name": "Raalhugandu",
  "lat": "5.686666667",
  "lon": "73.40444444",
  "flag_1": "U",
  "flag_2": null
}, {
  "atoll": "N",
  "type": "Islands",
  "name": "Randheli",
  "alt_name": "null",
  "lat": "5.691666667",
  "lon": "73.34055556",
  "flag_1": "R",
  "flag_2": null
}, {
  "atoll": "N",
  "type": "Islands",
  "name": "Than'burudhoo",
  "alt_name": "null",
  "lat": "5.716388889",
  "lon": "73.23444444",
  "flag_1": "U",
  "flag_2": "IND"
}, {
  "atoll": "N",
  "type": "Islands",
  "name": "Than'burudhuffushi",
  "alt_name": "Thanburudhu'faru",
  "lat": "5.708888889",
  "lon": "73.24138889",
  "flag_1": "U",
  "flag_2": null
}, {
  "atoll": "N",
  "type": "Islands",
  "name": "Tholhendhoo",
  "alt_name": "null",
  "lat": "5.920555556",
  "lon": "73.43638889",
  "flag_1": "U",
  "flag_2": null
}, {
  "atoll": "N",
  "type": "Islands",
  "name": "Thoshigan'dukolhu",
  "alt_name": "Eh'dhupparufalhu",
  "lat": "5.732777778",
  "lon": "73.41333333333334",
  "flag_1": "U",
  "flag_2": null
}, {
  "atoll": "N",
  "type": "Islands",
  "name": "Vavathi",
  "alt_name": "null",
  "lat": "5.796111111",
  "lon": "73.22722222",
  "flag_1": "U",
  "flag_2": null
}, {
  "atoll": "N",
  "type": "Islands",
  "name": "Velidhoo",
  "alt_name": "null",
  "lat": "5.663888889",
  "lon": "73.27416667",
  "flag_1": "I",
  "flag_2": null
}, {
  "atoll": "N",
  "type": "Islands",
  "name": "Vihafarufinolhu",
  "alt_name": "null",
  "lat": "5.681388888888889",
  "lon": "73.27972222222222",
  "flag_1": "U",
  "flag_2": null
}, {
  "atoll": "N",
  "type": "Sand Bank",
  "name": "Kudarah kudarah)",
  "alt_name": "Felivaru",
  "lat": "5.832777778",
  "lon": "73.31388889",
  "flag_1": "U",
  "flag_2": null
}, {
  "atoll": "R",
  "type": "Islands",
  "name": "Aarah",
  "alt_name": "null",
  "lat": "5.446944444",
  "lon": "72.94111111",
  "flag_1": "R",
  "flag_2": null
}, {
  "atoll": "R",
  "type": "Islands",
  "name": "Alifushi",
  "alt_name": "null",
  "lat": "5.967222222",
  "lon": "72.95333333",
  "flag_1": "I",
  "flag_2": null
}, {
  "atoll": "R",
  "type": "Islands",
  "name": "Angaagiri",
  "alt_name": "null",
  "lat": "5.556388888888889",
  "lon": "72.94583333333334",
  "flag_1": "U",
  "flag_2": null
}, {
  "atoll": "R",
  "type": "Islands",
  "name": "An'golhitheemu",
  "alt_name": "null",
  "lat": "5.7925",
  "lon": "73.00638889",
  "flag_1": "I",
  "flag_2": null
}, {
  "atoll": "R",
  "type": "Islands",
  "name": "Arilundhoo",
  "alt_name": "null",
  "lat": "5.66",
  "lon": "72.9575",
  "flag_1": "U",
  "flag_2": null
}, {
  "atoll": "R",
  "type": "Islands",
  "name": "Ban'daveri",
  "alt_name": "null",
  "lat": "5.6225",
  "lon": "72.85222222222221",
  "flag_1": "U",
  "flag_2": null
}, {
  "atoll": "R",
  "type": "Islands",
  "name": "Bodufarufinolhu",
  "alt_name": "null",
  "lat": "5.529722222",
  "lon": "72.80472222",
  "flag_1": "U",
  "flag_2": null
}, {
  "atoll": "R",
  "type": "Islands",
  "name": "Bodufen maaen'budhoo",
  "alt_name": "null",
  "lat": "5.629166667",
  "lon": "72.92388889",
  "flag_1": "U",
  "flag_2": null
}, {
  "atoll": "R",
  "type": "Islands",
  "name": "Bodufushi",
  "alt_name": "null",
  "lat": "5.5075",
  "lon": "72.96861111",
  "flag_1": "U",
  "flag_2": null
}, {
  "atoll": "R",
  "type": "Islands",
  "name": "Boduhaiykodi",
  "alt_name": "null",
  "lat": "5.609722222",
  "lon": "72.96944444",
  "flag_1": "U",
  "flag_2": "IND"
}, {
  "atoll": "R",
  "type": "Islands",
  "name": "Boduhuraa",
  "alt_name": "null",
  "lat": "5.417222222222223",
  "lon": "73.0225",
  "flag_1": "U",
  "flag_2": null
}, {
  "atoll": "R",
  "type": "Islands",
  "name": "Dheburidheythereyvaadhoo",
  "alt_name": "null",
  "lat": "5.400555556",
  "lon": "72.99083333",
  "flag_1": "U",
  "flag_2": "IND"
}, {
  "atoll": "R",
  "type": "Islands",
  "name": "Dhekunumaafaru",
  "alt_name": "null",
  "lat": "5.433611111",
  "lon": "72.895",
  "flag_1": "U",
  "flag_2": null
}, {
  "atoll": "R",
  "type": "Islands",
  "name": "Dhigali",
  "alt_name": "null",
  "lat": "5.475",
  "lon": "72.95333333",
  "flag_1": "R",
  "flag_2": null
}, {
  "atoll": "R",
  "type": "Islands",
  "name": "Dhikkurehdhoo",
  "alt_name": "null",
  "lat": "5.576666667",
  "lon": "72.95694444",
  "flag_1": "U",
  "flag_2": null
}, {
  "atoll": "R",
  "type": "Islands",
  "name": "Dhinnaafushi",
  "alt_name": "null",
  "lat": "5.589166667",
  "lon": "72.83333055555555",
  "flag_1": "U",
  "flag_2": null
}, {
  "atoll": "R",
  "type": "Islands",
  "name": "Dhoragali",
  "alt_name": "null",
  "lat": "5.494722222",
  "lon": "72.99777778",
  "flag_1": "U",
  "flag_2": null
}, {
  "atoll": "R",
  "type": "Islands",
  "name": "Dhuvaafaru",
  "alt_name": "null",
  "lat": "5.628611111",
  "lon": "73.04166667",
  "flag_1": "I",
  "flag_2": null
}, {
  "atoll": "R",
  "type": "Islands",
  "name": "Dhuvaafaruhuraa",
  "alt_name": "null",
  "lat": "5.639722222",
  "lon": "73.04166666666667",
  "flag_1": "U",
  "flag_2": null
}, {
  "atoll": "R",
  "type": "Islands",
  "name": "Ethigan'du jehihuraa",
  "alt_name": "null",
  "lat": "5.424722222222223",
  "lon": "73.03027777777778",
  "flag_1": "U",
  "flag_2": null
}, {
  "atoll": "R",
  "type": "Islands",
  "name": "Ehthigili",
  "alt_name": "null",
  "lat": "5.978611111",
  "lon": "72.93805556",
  "flag_1": "R",
  "flag_2": null
}, {
  "atoll": "R",
  "type": "Islands",
  "name": "Faarufushi",
  "alt_name": "Fararafushi",
  "lat": "5.767777778",
  "lon": "72.965",
  "flag_1": "U",
  "flag_2": null
}, {
  "atoll": "R",
  "type": "Islands",
  "name": "Fainu",
  "alt_name": "null",
  "lat": "5.463333333",
  "lon": "73.03444444",
  "flag_1": "I",
  "flag_2": null
}, {
  "atoll": "R",
  "type": "Islands",
  "name": "Fasgan'dufaru",
  "alt_name": "Husveli",
  "lat": "5.758055556",
  "lon": "72.93861111",
  "flag_1": "U",
  "flag_2": null
}, {
  "atoll": "R",
  "type": "Islands",
  "name": "Fasmendhoo",
  "alt_name": "null",
  "lat": "5.494166667",
  "lon": "72.88138889",
  "flag_1": "U",
  "flag_2": null
}, {
  "atoll": "R",
  "type": "Islands",
  "name": "Fenfushi",
  "alt_name": "null",
  "lat": "5.381944444",
  "lon": "72.90194444",
  "flag_1": "U",
  "flag_2": "IND"
}, {
  "atoll": "R",
  "type": "Islands",
  "name": "Filaidhoo",
  "alt_name": "null",
  "lat": "5.491666667",
  "lon": "72.93805556",
  "flag_1": "U",
  "flag_2": null
}, {
  "atoll": "R",
  "type": "Islands",
  "name": "Fuggiri",
  "alt_name": "null",
  "lat": "5.724166667",
  "lon": "72.85444444",
  "flag_1": "U",
  "flag_2": null
}, {
  "atoll": "R",
  "type": "Islands",
  "name": "Furaveri",
  "alt_name": "Faruveri",
  "lat": "5.440277778",
  "lon": "72.90805556",
  "flag_1": "R",
  "flag_2": null
}, {
  "atoll": "R",
  "type": "Islands",
  "name": "Gaaun'doodhoo",
  "alt_name": "null",
  "lat": "5.749166667",
  "lon": "73.01555556",
  "flag_1": "U",
  "flag_2": null
}, {
  "atoll": "R",
  "type": "Islands",
  "name": "Giraavaru",
  "alt_name": "null",
  "lat": "5.588333333",
  "lon": "72.86111111",
  "flag_1": "U",
  "flag_2": null
}, {
  "atoll": "R",
  "type": "Islands",
  "name": "Goboshi",
  "alt_name": "null",
  "lat": "5.551666666666667",
  "lon": "72.88416666666667",
  "flag_1": "U",
  "flag_2": null
}, {
  "atoll": "R",
  "type": "Islands",
  "name": "Goiymaru",
  "alt_name": "null",
  "lat": "5.63",
  "lon": "72.88777778",
  "flag_1": "U",
  "flag_2": null
}, {
  "atoll": "R",
  "type": "Islands",
  "name": "Goyyafaru",
  "alt_name": "null",
  "lat": "5.564722222",
  "lon": "72.92722222",
  "flag_1": "U",
  "flag_2": null
}, {
  "atoll": "R",
  "type": "Islands",
  "name": "Hiboodhoo",
  "alt_name": "null",
  "lat": "5.6125",
  "lon": "72.91888889",
  "flag_1": "U",
  "flag_2": null
}, {
  "atoll": "R",
  "type": "Islands",
  "name": "Hiraveri",
  "alt_name": "Husveli",
  "lat": "5.571666667",
  "lon": "72.86916667",
  "flag_1": "U",
  "flag_2": null
}, {
  "atoll": "R",
  "type": "Islands",
  "name": "Hulhudhoo",
  "alt_name": "null",
  "lat": "5.738611111111111",
  "lon": "73.01888888888888",
  "flag_1": "U",
  "flag_2": null
}, {
  "atoll": "R",
  "type": "Islands",
  "name": "Hulhudhuffaaru",
  "alt_name": "null",
  "lat": "5.761944444",
  "lon": "73.01222222",
  "flag_1": "I",
  "flag_2": null
}, {
  "atoll": "R",
  "type": "Islands",
  "name": "Huruvalhi",
  "alt_name": "null",
  "lat": "5.391944444",
  "lon": "72.97888889",
  "flag_1": "U",
  "flag_2": null
}, {
  "atoll": "R",
  "type": "Islands",
  "name": "Ifuru",
  "alt_name": "null",
  "lat": "5.707222222",
  "lon": "73.02416667",
  "flag_1": "U",
  "flag_2": "IND"
}, {
  "atoll": "R",
  "type": "Islands",
  "name": "In'guraidhoo",
  "alt_name": "null",
  "lat": "5.476944444",
  "lon": "73.03638889",
  "flag_1": "I",
  "flag_2": null
}, {
  "atoll": "R",
  "type": "Islands",
  "name": "Innamaadhoo",
  "alt_name": "null",
  "lat": "5.549444444",
  "lon": "73.04416667",
  "flag_1": "I",
  "flag_2": null
}, {
  "atoll": "R",
  "type": "Islands",
  "name": "Kan'dholhudoo",
  "alt_name": "null",
  "lat": "5.618611111",
  "lon": "72.855",
  "flag_1": "U",
  "flag_2": null
}, {
  "atoll": "R",
  "type": "Islands",
  "name": "Kandhoomeehunge lhaan'bugali",
  "alt_name": "null",
  "lat": "5.730555556",
  "lon": "72.91888889",
  "flag_1": "U",
  "flag_2": null
}, {
  "atoll": "R",
  "type": "Islands",
  "name": "Kan'doogan'du",
  "alt_name": "null",
  "lat": "5.780833333",
  "lon": "72.87611111",
  "flag_1": "U",
  "flag_2": null
}, {
  "atoll": "R",
  "type": "Islands",
  "name": "Kinolhas",
  "alt_name": "null",
  "lat": "5.448333333",
  "lon": "73.02888889",
  "flag_1": "I",
  "flag_2": null
}, {
  "atoll": "R",
  "type": "Islands",
  "name": "Kothaifaru",
  "alt_name": "null",
  "lat": "5.525277778",
  "lon": "72.84277778",
  "flag_1": "U",
  "flag_2": null
}, {
  "atoll": "R",
  "type": "Islands",
  "name": "Kottefaru",
  "alt_name": "null",
  "lat": "5.509444444",
  "lon": "73.04194444",
  "flag_1": "U",
  "flag_2": null
}, {
  "atoll": "R",
  "type": "Islands",
  "name": "Kudafen maaen'boodhoo",
  "alt_name": "null",
  "lat": "5.625",
  "lon": "72.93527778",
  "flag_1": "U",
  "flag_2": null
}, {
  "atoll": "R",
  "type": "Islands",
  "name": "Kudafushi",
  "alt_name": "null",
  "lat": "5.510555556",
  "lon": "72.98027778",
  "flag_1": "R",
  "flag_2": null
}, {
  "atoll": "R",
  "type": "Islands",
  "name": "Kudakurathu",
  "alt_name": "null",
  "lat": "5.583611111",
  "lon": "73.04444444",
  "flag_1": "U",
  "flag_2": null
}, {
  "atoll": "R",
  "type": "Islands",
  "name": "Kudalhosgiri",
  "alt_name": "null",
  "lat": "5.601666667",
  "lon": "72.91416667",
  "flag_1": "U",
  "flag_2": null
}, {
  "atoll": "R",
  "type": "Islands",
  "name": "Kudathulhaadhoo",
  "alt_name": "null",
  "lat": "5.407222222",
  "lon": "72.89861111",
  "flag_1": "U",
  "flag_2": null
}, {
  "atoll": "R",
  "type": "Islands",
  "name": "Kukulhudhoo",
  "alt_name": "null",
  "lat": "5.458888889",
  "lon": "72.87083333",
  "flag_1": "U",
  "flag_2": null
}, {
  "atoll": "R",
  "type": "Islands",
  "name": "Kurehdhoo",
  "alt_name": "kolhikurehdhoo",
  "lat": "5.640555556",
  "lon": "72.89416667",
  "flag_1": "U",
  "flag_2": null
}, {
  "atoll": "R",
  "type": "Islands",
  "name": "Kuroshigiri",
  "alt_name": "null",
  "lat": "5.513611111",
  "lon": "72.85",
  "flag_1": "U",
  "flag_2": null
}, {
  "atoll": "R",
  "type": "Islands",
  "name": "Lhaan'bugali",
  "alt_name": "null",
  "lat": "5.551944444",
  "lon": "72.87694444",
  "flag_1": "U",
  "flag_2": null
}, {
  "atoll": "R",
  "type": "Islands",
  "name": "Lhohi",
  "alt_name": "null",
  "lat": "5.461388889",
  "lon": "72.885",
  "flag_1": "U",
  "flag_2": "IND"
}, {
  "atoll": "R",
  "type": "Islands",
  "name": "Lin'boakandhoo",
  "alt_name": "null",
  "lat": "5.730555556",
  "lon": "72.93416667",
  "flag_1": "U",
  "flag_2": "IND"
}, {
  "atoll": "R",
  "type": "Islands",
  "name": "Lun'dhufushi",
  "alt_name": "null",
  "lat": "5.643888889",
  "lon": "72.98666667",
  "flag_1": "PR",
  "flag_2": null
}, {
  "atoll": "R",
  "type": "Islands",
  "name": "Maakurathu",
  "alt_name": "null",
  "lat": "5.605833333",
  "lon": "73.04388889",
  "flag_1": "I",
  "flag_2": null
}, {
  "atoll": "R",
  "type": "Islands",
  "name": "Maamin'gili",
  "alt_name": "null",
  "lat": "5.650833333",
  "lon": "72.88472222",
  "flag_1": "R",
  "flag_2": null
}, {
  "atoll": "R",
  "type": "Islands",
  "name": "Maamunagau",
  "alt_name": "null",
  "lat": "5.360277778",
  "lon": "72.91888889",
  "flag_1": "U",
  "flag_2": null
}, {
  "atoll": "R",
  "type": "Islands",
  "name": "Maamunagaufinolhu",
  "alt_name": "Husveli",
  "lat": "5.369444444",
  "lon": "72.87583333",
  "flag_1": "U",
  "flag_2": null
}, {
  "atoll": "R",
  "type": "Islands",
  "name": "Maanenfushi",
  "alt_name": "null",
  "lat": "5.7525",
  "lon": "72.96111111",
  "flag_1": "PR",
  "flag_2": null
}, {
  "atoll": "R",
  "type": "Islands",
  "name": "Maashigiri",
  "alt_name": "null",
  "lat": "5.513888889",
  "lon": "72.82666667",
  "flag_1": "U",
  "flag_2": null
}, {
  "atoll": "R",
  "type": "Islands",
  "name": "Madivaafaru",
  "alt_name": "null",
  "lat": "5.608055556",
  "lon": "72.98944444",
  "flag_1": "U",
  "flag_2": null
}, {
  "atoll": "R",
  "type": "Islands",
  "name": "Maduvvari",
  "alt_name": "null",
  "lat": "5.486111111",
  "lon": "72.89583333",
  "flag_1": "I",
  "flag_2": null
}, {
  "atoll": "R",
  "type": "Islands",
  "name": "Mahidhoo",
  "alt_name": "null",
  "lat": "5.5375",
  "lon": "72.94388889",
  "flag_1": "U",
  "flag_2": null
}, {
  "atoll": "R",
  "type": "Islands",
  "name": "Meedhoo",
  "alt_name": "null",
  "lat": "5.458055556",
  "lon": "72.95472222",
  "flag_1": "I",
  "flag_2": null
}, {
  "atoll": "R",
  "type": "Islands",
  "name": "Meedhupparu",
  "alt_name": "null",
  "lat": "5.455833333",
  "lon": "72.97972222",
  "flag_1": "R",
  "flag_2": null
}, {
  "atoll": "R",
  "type": "Islands",
  "name": "Mullaafushi",
  "alt_name": "Husveli",
  "lat": "5.52",
  "lon": "72.90722222222223",
  "flag_1": "U",
  "flag_2": null
}, {
  "atoll": "R",
  "type": "Islands",
  "name": "Muravandhoo",
  "alt_name": "null",
  "lat": "5.6075",
  "lon": "72.95222222",
  "flag_1": "U",
  "flag_2": null
}, {
  "atoll": "R",
  "type": "Islands",
  "name": "Neyo",
  "alt_name": "null",
  "lat": "5.4925",
  "lon": "73.03861111",
  "flag_1": "U",
  "flag_2": "IND"
}, {
  "atoll": "R",
  "type": "Islands",
  "name": "Rasgetheemu",
  "alt_name": "null",
  "lat": "5.8075",
  "lon": "73.00305556",
  "flag_1": "I",
  "flag_2": null
}, {
  "atoll": "R",
  "type": "Islands",
  "name": "Rasmaadhoo",
  "alt_name": "null",
  "lat": "5.562777778",
  "lon": "73.04361111",
  "flag_1": "I",
  "flag_2": null
}, {
  "atoll": "R",
  "type": "Islands",
  "name": "Thaavathaa",
  "alt_name": "null",
  "lat": "5.484444444",
  "lon": "72.97555556",
  "flag_1": "U",
  "flag_2": null
}, {
  "atoll": "R",
  "type": "Islands",
  "name": "Ufulandhoo",
  "alt_name": "null",
  "lat": "5.464166667",
  "lon": "72.91333333",
  "flag_1": "R",
  "flag_2": null
}, {
  "atoll": "R",
  "type": "Islands",
  "name": "Un'goofaaru",
  "alt_name": "null",
  "lat": "5.668055556",
  "lon": "73.03",
  "flag_1": "I",
  "flag_2": null
}, {
  "atoll": "R",
  "type": "Islands",
  "name": "Un'gulu",
  "alt_name": "null",
  "lat": "5.690555556",
  "lon": "73.02611111",
  "flag_1": "U",
  "flag_2": "IND"
}, {
  "atoll": "R",
  "type": "Islands",
  "name": "Uthurumaafaru",
  "alt_name": "null",
  "lat": "5.669722222",
  "lon": "72.84555556",
  "flag_1": "R",
  "flag_2": null
}, {
  "atoll": "R",
  "type": "Islands",
  "name": "Vaadhoo",
  "alt_name": "null",
  "lat": "5.856388889",
  "lon": "72.99138889",
  "flag_1": "I",
  "flag_2": null
}, {
  "atoll": "R",
  "type": "Islands",
  "name": "Vaffushi",
  "alt_name": "null",
  "lat": "5.629166667",
  "lon": "72.86222222222221",
  "flag_1": "U",
  "flag_2": null
}, {
  "atoll": "R",
  "type": "Islands",
  "name": "Vaffushihuraa",
  "alt_name": "null",
  "lat": "5.6425",
  "lon": "72.83972222",
  "flag_1": "U",
  "flag_2": null
}, {
  "atoll": "R",
  "type": "Islands",
  "name": "Vandhoo",
  "alt_name": "null",
  "lat": "5.531666667",
  "lon": "73.04166667",
  "flag_1": "U",
  "flag_2": null
}, {
  "atoll": "R",
  "type": "Islands",
  "name": "Veyvah",
  "alt_name": "null",
  "lat": "5.766666667",
  "lon": "72.89305556",
  "flag_1": "U",
  "flag_2": null
}, {
  "atoll": "R",
  "type": "Islands",
  "name": "Vilin'gili",
  "alt_name": "null",
  "lat": "5.376388889",
  "lon": "72.95388889",
  "flag_1": "U",
  "flag_2": null
}, {
  "atoll": "R",
  "type": "Islands",
  "name": "Gemana",
  "alt_name": "null",
  "lat": "5.537222222222222",
  "lon": "72.98472222222222",
  "flag_1": "U",
  "flag_2": null
}, {
  "atoll": "R",
  "type": "Islands",
  "name": "Orimasfushi",
  "alt_name": "null",
  "lat": "5.5811111111111105",
  "lon": "72.90694444444445",
  "flag_1": "U",
  "flag_2": null
}, {
  "atoll": "R",
  "type": "Sand Bank",
  "name": "Minaadhoo",
  "alt_name": "null",
  "lat": "5.588055555555555",
  "lon": "72.92694444444444",
  "flag_1": "U",
  "flag_2": null
}, {
  "atoll": "B",
  "type": "Islands",
  "name": "Ahivaffushi",
  "alt_name": "null",
  "lat": "5.228333333",
  "lon": "72.85694444",
  "flag_1": "U",
  "flag_2": null
}, {
  "atoll": "B",
  "type": "Islands",
  "name": "Aidhoo",
  "alt_name": "null",
  "lat": "5.186944444",
  "lon": "73.16333333",
  "flag_1": "U",
  "flag_2": "IND"
}, {
  "atoll": "B",
  "type": "Islands",
  "name": "Anhenunfushi",
  "alt_name": "null",
  "lat": "5.341944444",
  "lon": "72.96861111",
  "flag_1": "U",
  "flag_2": "IND"
}, {
  "atoll": "B",
  "type": "Islands",
  "name": "Bathalaa",
  "alt_name": "null",
  "lat": "5.353333333333333",
  "lon": "73.06861111111111",
  "flag_1": "U",
  "flag_2": null
}, {
  "atoll": "B",
  "type": "Islands",
  "name": "Boadhaafushifinolhu",
  "alt_name": "null",
  "lat": "4.881666666666667",
  "lon": "72.89416666666668",
  "flag_1": "U",
  "flag_2": null
}, {
  "atoll": "B",
  "type": "Islands",
  "name": "Bodufinolhu",
  "alt_name": "null",
  "lat": "5.007777778",
  "lon": "72.85722222",
  "flag_1": "U",
  "flag_2": null
}, {
  "atoll": "B",
  "type": "Islands",
  "name": "Boifushi",
  "alt_name": "null",
  "lat": "5.2975",
  "lon": "72.99361111",
  "flag_1": "U",
  "flag_2": null
}, {
  "atoll": "B",
  "type": "Islands",
  "name": "Dhakandhoo",
  "alt_name": "null",
  "lat": "5.248333333",
  "lon": "72.89333333",
  "flag_1": "U",
  "flag_2": null
}, {
  "atoll": "B",
  "type": "Islands",
  "name": "Dhandhoo",
  "alt_name": "null",
  "lat": "5.235555556",
  "lon": "73.16833333",
  "flag_1": "R",
  "flag_2": null
}, {
  "atoll": "B",
  "type": "Islands",
  "name": "Dharavandhoo",
  "alt_name": "null",
  "lat": "5.157777778",
  "lon": "73.13027778",
  "flag_1": "I",
  "flag_2": "ADF,H"
}, {
  "atoll": "B",
  "type": "Islands",
  "name": "Dhashufaruhuraa",
  "alt_name": "null",
  "lat": "4.8175",
  "lon": "72.91000000000001",
  "flag_1": "U",
  "flag_2": null
}, {
  "atoll": "B",
  "type": "Islands",
  "name": "Dhigudhefaru",
  "alt_name": "null",
  "lat": "5.235277778",
  "lon": "73.13833333",
  "flag_1": "U",
  "flag_2": null
}, {
  "atoll": "B",
  "type": "Islands",
  "name": "Dhigufaruvinagan'du",
  "alt_name": "null",
  "lat": "5.352222222",
  "lon": "72.99027778",
  "flag_1": "R",
  "flag_2": null
}, {
  "atoll": "B",
  "type": "Islands",
  "name": "Dhonfanu",
  "alt_name": "null",
  "lat": "5.1875",
  "lon": "73.12277778",
  "flag_1": "I",
  "flag_2": null
}, {
  "atoll": "B",
  "type": "Islands",
  "name": "Dhoogan'dufinolhu",
  "alt_name": "u",
  "lat": "5.246944444",
  "lon": "73.15138888888889",
  "flag_1": null,
  "flag_2": null
}, {
  "atoll": "B",
  "type": "Islands",
  "name": "Dhunikolhu",
  "alt_name": "null",
  "lat": "5.039722222",
  "lon": "72.88138889",
  "flag_1": "R",
  "flag_2": null
}, {
  "atoll": "B",
  "type": "Islands",
  "name": "En'boodhoo",
  "alt_name": "null",
  "lat": "5.063888889",
  "lon": "72.85583333",
  "flag_1": "U",
  "flag_2": null
}, {
  "atoll": "B",
  "type": "Islands",
  "name": "Eydhafushi",
  "alt_name": "null",
  "lat": "5.103333333",
  "lon": "73.07",
  "flag_1": "I",
  "flag_2": null
}, {
  "atoll": "B",
  "type": "Islands",
  "name": "Fares",
  "alt_name": "null",
  "lat": "5.232222222",
  "lon": "72.87722222",
  "flag_1": "R",
  "flag_2": null
}, {
  "atoll": "B",
  "type": "Islands",
  "name": "Fehendhoo",
  "alt_name": "null",
  "lat": "4.881388889",
  "lon": "72.96972222",
  "flag_1": "I",
  "flag_2": null
}, {
  "atoll": "B",
  "type": "Islands",
  "name": "Finolhas",
  "alt_name": "null",
  "lat": "5.233611111",
  "lon": "73.11361111",
  "flag_1": "U",
  "flag_2": null
}, {
  "atoll": "B",
  "type": "Islands",
  "name": "Fonimagoodhoo",
  "alt_name": "null",
  "lat": "5.254722222",
  "lon": "73.16333333",
  "flag_1": "R",
  "flag_2": null
}, {
  "atoll": "B",
  "type": "Islands",
  "name": "Fulhadhoo",
  "alt_name": "null",
  "lat": "4.884722222",
  "lon": "72.93277778",
  "flag_1": "I",
  "flag_2": null
}, {
  "atoll": "B",
  "type": "Islands",
  "name": "Funadhoo",
  "alt_name": "null",
  "lat": "5.274444444",
  "lon": "73.03305556",
  "flag_1": "U",
  "flag_2": null
}, {
  "atoll": "B",
  "type": "Islands",
  "name": "Gaagan'dufaruhuraa",
  "alt_name": "null",
  "lat": "5.369166666666667",
  "lon": "73.06083333333333",
  "flag_1": "U",
  "flag_2": null
}, {
  "atoll": "B",
  "type": "Islands",
  "name": "Gaavilin'gili",
  "alt_name": "null",
  "lat": "5.061944444",
  "lon": "72.83722222",
  "flag_1": "U",
  "flag_2": null
}, {
  "atoll": "B",
  "type": "Islands",
  "name": "Gemendhoo",
  "alt_name": "null",
  "lat": "5.275277777777777",
  "lon": "73.01972222",
  "flag_1": "U",
  "flag_2": null
}, {
  "atoll": "B",
  "type": "Islands",
  "name": "Goidhoo",
  "alt_name": "null",
  "lat": "4.872777778",
  "lon": "72.99888889",
  "flag_1": "I",
  "flag_2": null
}, {
  "atoll": "B",
  "type": "Islands",
  "name": "Hanifaru",
  "alt_name": "null",
  "lat": "5.1825",
  "lon": "73.13277778",
  "flag_1": "U",
  "flag_2": null
}, {
  "atoll": "B",
  "type": "Islands",
  "name": "Hanifaruhuraa",
  "alt_name": "null",
  "lat": "5.1725",
  "lon": "73.15138888888889",
  "flag_1": "U",
  "flag_2": null
}, {
  "atoll": "B",
  "type": "Islands",
  "name": "Hibalhidhoo",
  "alt_name": "null",
  "lat": "5.141111111",
  "lon": "73.11472222",
  "flag_1": "U",
  "flag_2": null
}, {
  "atoll": "B",
  "type": "Islands",
  "name": "Hirundhoo",
  "alt_name": "null",
  "lat": "5.216944444",
  "lon": "73.15333333",
  "flag_1": "R",
  "flag_2": null
}, {
  "atoll": "B",
  "type": "Islands",
  "name": "Hithaadhoo",
  "alt_name": "null",
  "lat": "5.006944444",
  "lon": "72.92277778",
  "flag_1": "I",
  "flag_2": null
}, {
  "atoll": "B",
  "type": "Islands",
  "name": "Horubadhoo",
  "alt_name": "null",
  "lat": "5.163055556",
  "lon": "73.05333333",
  "flag_1": "R",
  "flag_2": null
}, {
  "atoll": "B",
  "type": "Islands",
  "name": "Hulhudhoo",
  "alt_name": "null",
  "lat": "5.274722222",
  "lon": "73.025",
  "flag_1": "U",
  "flag_2": null
}, {
  "atoll": "B",
  "type": "Islands",
  "name": "Maaddoo Hulhudhoo",
  "alt_name": "null",
  "lat": "5.071111111111111",
  "lon": "73.03194444444445",
  "flag_1": "U",
  "flag_2": null
}, {
  "atoll": "B",
  "type": "Islands",
  "name": "Innafushi",
  "alt_name": "null",
  "lat": "4.8775",
  "lon": "72.87861111",
  "flag_1": "R",
  "flag_2": null
}, {
  "atoll": "B",
  "type": "Islands",
  "name": "Kamadhoo",
  "alt_name": "null",
  "lat": "5.281666667",
  "lon": "73.13666667",
  "flag_1": "I",
  "flag_2": null
}, {
  "atoll": "B",
  "type": "Islands",
  "name": "Kanufusheegaathufinolhu",
  "alt_name": "null",
  "lat": "5.013888889",
  "lon": "72.96277778",
  "flag_1": "U",
  "flag_2": null
}, {
  "atoll": "B",
  "type": "Islands",
  "name": "Kanufushi",
  "alt_name": "null",
  "lat": "5.011388888888889",
  "lon": "72.95138888888889",
  "flag_1": "R",
  "flag_2": null
}, {
  "atoll": "B",
  "type": "Islands",
  "name": "Kashidhoo",
  "alt_name": "null",
  "lat": "5.296944444",
  "lon": "72.96861111",
  "flag_1": "U",
  "flag_2": "IND"
}, {
  "atoll": "B",
  "type": "Islands",
  "name": "Kashidhuffarufinolhu",
  "alt_name": "null",
  "lat": "5.295833333333333",
  "lon": "72.93333055555556",
  "flag_1": "U",
  "flag_2": null
}, {
  "atoll": "B",
  "type": "Islands",
  "name": "Kendhoo",
  "alt_name": "null",
  "lat": "5.275277778",
  "lon": "73.01027778",
  "flag_1": "I",
  "flag_2": null
}, {
  "atoll": "B",
  "type": "Islands",
  "name": "Keyodhoo",
  "alt_name": "null",
  "lat": "5.276666666666666",
  "lon": "72.99583333",
  "flag_1": "U",
  "flag_2": null
}, {
  "atoll": "B",
  "type": "Islands",
  "name": "Kihaadhoo",
  "alt_name": "null",
  "lat": "5.215",
  "lon": "73.125",
  "flag_1": "I",
  "flag_2": null
}, {
  "atoll": "B",
  "type": "Islands",
  "name": "Kihaadhuffaru",
  "alt_name": "null",
  "lat": "5.190833333",
  "lon": "73.13222222",
  "flag_1": "R",
  "flag_2": null
}, {
  "atoll": "B",
  "type": "Islands",
  "name": "Kihavah huravalhi",
  "alt_name": "null",
  "lat": "5.295833333",
  "lon": "73.05666667",
  "flag_1": "R",
  "flag_2": null
}, {
  "atoll": "B",
  "type": "Islands",
  "name": "Kudadhoo",
  "alt_name": "null",
  "lat": "5.028611111",
  "lon": "72.99138889",
  "flag_1": "U",
  "flag_2": "IND"
}, {
  "atoll": "B",
  "type": "Islands",
  "name": "Kudarikilu",
  "alt_name": "null",
  "lat": "5.300277778",
  "lon": "73.07083333",
  "flag_1": "I",
  "flag_2": null
}, {
  "atoll": "B",
  "type": "Islands",
  "name": "Kunfunadhoo",
  "alt_name": "null",
  "lat": "5.112222222",
  "lon": "73.07722222",
  "flag_1": "R",
  "flag_2": null
}, {
  "atoll": "B",
  "type": "Islands",
  "name": "Lan'daagiraavaru",
  "alt_name": "null",
  "lat": "5.286111111",
  "lon": "73.11194444",
  "flag_1": "R",
  "flag_2": null
}, {
  "atoll": "B",
  "type": "Islands",
  "name": "Maaddoo",
  "alt_name": "null",
  "lat": "5.092777778",
  "lon": "73.0625",
  "flag_1": "U",
  "flag_2": null
}, {
  "atoll": "B",
  "type": "Islands",
  "name": "Maalhos",
  "alt_name": "null",
  "lat": "5.134444444",
  "lon": "73.10777778",
  "flag_1": "I",
  "flag_2": null
}, {
  "atoll": "B",
  "type": "Islands",
  "name": "Maamaduvvari",
  "alt_name": "null",
  "lat": "5.008888889",
  "lon": "72.94166667",
  "flag_1": "U",
  "flag_2": null
}, {
  "atoll": "B",
  "type": "Islands",
  "name": "Maarikilu",
  "alt_name": "null",
  "lat": "5.334722222",
  "lon": "72.9525",
  "flag_1": "U",
  "flag_2": "IND"
}, {
  "atoll": "B",
  "type": "Islands",
  "name": "Madhirivaadhoo",
  "alt_name": "null",
  "lat": "5.268611111",
  "lon": "73.16083333",
  "flag_1": "U",
  "flag_2": null
}, {
  "atoll": "B",
  "type": "Islands",
  "name": "Mathifaru",
  "alt_name": "null",
  "lat": "4.815555556",
  "lon": "72.89027778",
  "flag_1": "U",
  "flag_2": null
}, {
  "atoll": "B",
  "type": "Islands",
  "name": "Medhufinolhu gaathufinolhu",
  "alt_name": "null",
  "lat": "5.015833333333333",
  "lon": "72.96638889",
  "flag_1": "U",
  "flag_2": null
}, {
  "atoll": "B",
  "type": "Islands",
  "name": "Mendhoo",
  "alt_name": "null",
  "lat": "5.175",
  "lon": "72.99527778",
  "flag_1": "R",
  "flag_2": null
}, {
  "atoll": "B",
  "type": "Islands",
  "name": "Milaidhoo",
  "alt_name": "null",
  "lat": "5.266944444",
  "lon": "73.12805556",
  "flag_1": "R",
  "flag_2": null
}, {
  "atoll": "B",
  "type": "Islands",
  "name": "Miriandhoo",
  "alt_name": "null",
  "lat": "5.063055556",
  "lon": "73.03083333",
  "flag_1": "U",
  "flag_2": null
}, {
  "atoll": "B",
  "type": "Islands",
  "name": "Muhdhoo",
  "alt_name": "null",
  "lat": "5.206666667",
  "lon": "73.08444444",
  "flag_1": "R",
  "flag_2": null
}, {
  "atoll": "B",
  "type": "Islands",
  "name": "Muthaafushi",
  "alt_name": "null",
  "lat": "5.078055556",
  "lon": "72.87722222",
  "flag_1": "U",
  "flag_2": null
}, {
  "atoll": "B",
  "type": "Islands",
  "name": "Nelivarufinolhu",
  "alt_name": "null",
  "lat": "5.125555556",
  "lon": "73.08527777777778",
  "flag_1": "U",
  "flag_2": null
}, {
  "atoll": "B",
  "type": "Islands",
  "name": "Nibiligaa",
  "alt_name": "null",
  "lat": "5.1725",
  "lon": "72.94416667",
  "flag_1": "U",
  "flag_2": null
}, {
  "atoll": "B",
  "type": "Islands",
  "name": "Olhugiri",
  "alt_name": "null",
  "lat": "5.001111111",
  "lon": "72.90583333",
  "flag_1": "U",
  "flag_2": null
}, {
  "atoll": "B",
  "type": "Islands",
  "name": "Thiladhoo",
  "alt_name": "null",
  "lat": "5.262222222",
  "lon": "73.155",
  "flag_1": "R",
  "flag_2": null
}, {
  "atoll": "B",
  "type": "Islands",
  "name": "Thulhaadhoo",
  "alt_name": "null",
  "lat": "5.023055556",
  "lon": "72.83972222",
  "flag_1": "I",
  "flag_2": null
}, {
  "atoll": "B",
  "type": "Islands",
  "name": "Ufuligiri",
  "alt_name": "null",
  "lat": "5.016944444",
  "lon": "72.97027778",
  "flag_1": "U",
  "flag_2": null
}, {
  "atoll": "B",
  "type": "Islands",
  "name": "Un'doodhoo",
  "alt_name": "null",
  "lat": "5.274444444",
  "lon": "73.04222222",
  "flag_1": "U",
  "flag_2": "IND"
}, {
  "atoll": "B",
  "type": "Islands",
  "name": "Vakkaru",
  "alt_name": "null",
  "lat": "5.133611111",
  "lon": "72.91",
  "flag_1": "PR",
  "flag_2": null
}, {
  "atoll": "B",
  "type": "Islands",
  "name": "Velavaru",
  "alt_name": "null",
  "lat": "5.206666666666667",
  "lon": "72.92055555555557",
  "flag_1": "U",
  "flag_2": null
}, {
  "atoll": "B",
  "type": "Islands",
  "name": "Veyofushi",
  "alt_name": "null",
  "lat": "5.228888889",
  "lon": "73.15833333333334",
  "flag_1": "U",
  "flag_2": null
}, {
  "atoll": "B",
  "type": "Islands",
  "name": "Vinaneiyfaruhuraa",
  "alt_name": "null",
  "lat": "5.346111111111111",
  "lon": "73.0786111111111",
  "flag_1": "U",
  "flag_2": null
}, {
  "atoll": "B",
  "type": "Islands",
  "name": "Voavah",
  "alt_name": "null",
  "lat": "5.316666667",
  "lon": "73.0775",
  "flag_1": "R",
  "flag_2": null
}, {
  "atoll": "B",
  "type": "Islands",
  "name": "Huraafaru",
  "alt_name": "Finolhu",
  "lat": "5.206680555555556",
  "lon": "73.15422222222223",
  "flag_1": "R",
  "flag_2": null
}, {
  "atoll": "B",
  "type": "Patch Reef (Giri)",
  "name": "An'gaafaru",
  "alt_name": "null",
  "lat": "5.1775",
  "lon": "73.09916666666666",
  "flag_1": "R",
  "flag_2": null
}, {
  "atoll": "B",
  "type": "Sand Bank",
  "name": "Bathalaa huraa",
  "alt_name": "null",
  "lat": "5.358055555555556",
  "lon": "73.0611111111111",
  "flag_1": "U",
  "flag_2": null
}, {
  "atoll": "B",
  "type": "Sand Bank",
  "name": "Vandhuh'maafaru finolhu",
  "alt_name": "null",
  "lat": "5.236111111111112",
  "lon": "73.1913888888889",
  "flag_1": "U",
  "flag_2": null
}, {
  "atoll": "B",
  "type": "Sand Bank",
  "name": "Maafusheefinolhu",
  "alt_name": "null",
  "lat": "5.231111111111111",
  "lon": "73.19166666666668",
  "flag_1": null,
  "flag_2": null
}, {
  "atoll": "B",
  "type": "Sand Bank",
  "name": "Finolhufaru",
  "alt_name": "null",
  "lat": "5.183888888888889",
  "lon": "72.93472222222222",
  "flag_1": "U",
  "flag_2": null
}, {
  "atoll": "LH",
  "type": "Islands",
  "name": "Aligaa",
  "alt_name": "null",
  "lat": "5.243888889",
  "lon": "73.51638889",
  "flag_1": "U",
  "flag_2": "IND"
}, {
  "atoll": "LH",
  "type": "Islands",
  "name": "Boamandhipparu huraagan'du",
  "alt_name": "null",
  "lat": "5.498333333333333",
  "lon": "73.51055555555556",
  "flag_1": "U",
  "flag_2": null
}, {
  "atoll": "LH",
  "type": "Islands",
  "name": "Bodufinolhu",
  "alt_name": "null",
  "lat": "5.269166666666667",
  "lon": "73.57111111111111",
  "flag_1": "U",
  "flag_2": null
}, {
  "atoll": "LH",
  "type": "Islands",
  "name": "Bodugaahuraa",
  "alt_name": "Bodufaahuraa",
  "lat": "5.332222222",
  "lon": "73.65722222",
  "flag_1": "U",
  "flag_2": null
}, {
  "atoll": "LH",
  "type": "Islands",
  "name": "Dhashugirifinolhu",
  "alt_name": "null",
  "lat": "5.421111111111111",
  "lon": "73.42611111111111",
  "flag_1": "U",
  "flag_2": null
}, {
  "atoll": "LH",
  "type": "Islands",
  "name": "Dheruffinolhu",
  "alt_name": "null",
  "lat": "5.324166666666667",
  "lon": "73.64722222",
  "flag_1": "U",
  "flag_2": null
}, {
  "atoll": "LH",
  "type": "Islands",
  "name": "Dhihdhoo",
  "alt_name": "Ookolhudhihdhoo",
  "lat": "5.376111111",
  "lon": "73.38222222",
  "flag_1": "U",
  "flag_2": null
}, {
  "atoll": "LH",
  "type": "Islands",
  "name": "Dhiffushi",
  "alt_name": "Dhiffushimaadhoo",
  "lat": "5.386666667",
  "lon": "73.64916667",
  "flag_1": "U",
  "flag_2": null
}, {
  "atoll": "LH",
  "type": "Islands",
  "name": "Dhirun'baahuraa",
  "alt_name": "null",
  "lat": "5.353888889",
  "lon": "73.65833333",
  "flag_1": null,
  "flag_2": null
}, {
  "atoll": "LH",
  "type": "Islands",
  "name": "Faadhoo",
  "alt_name": "null",
  "lat": "5.431388889",
  "lon": "73.63027778",
  "flag_1": "U",
  "flag_2": null
}, {
  "atoll": "LH",
  "type": "Islands",
  "name": "Faadhoohuraagan'du",
  "alt_name": "null",
  "lat": "5.435555555555556",
  "lon": "73.61999999999999",
  "flag_1": "U",
  "flag_2": null
}, {
  "atoll": "LH",
  "type": "Islands",
  "name": "Fainu aadhanhuraa",
  "alt_name": "null",
  "lat": "5.358333333",
  "lon": "73.65777778",
  "flag_1": "U",
  "flag_2": null
}, {
  "atoll": "LH",
  "type": "Islands",
  "name": "Fehigili",
  "alt_name": "null",
  "lat": "5.5575",
  "lon": "73.48138889",
  "flag_1": "U",
  "flag_2": null
}, {
  "atoll": "LH",
  "type": "Islands",
  "name": "Felivaru",
  "alt_name": "null",
  "lat": "5.476944444",
  "lon": "73.38583333",
  "flag_1": "U",
  "flag_2": "IND"
}, {
  "atoll": "LH",
  "type": "Islands",
  "name": "Fushifaru",
  "alt_name": "null",
  "lat": "5.490833333",
  "lon": "73.51527778",
  "flag_1": "U",
  "flag_2": null
}, {
  "atoll": "LH",
  "type": "Islands",
  "name": "Gaaerifaru",
  "alt_name": "null",
  "lat": "5.485",
  "lon": "73.40361111",
  "flag_1": "U",
  "flag_2": "IND"
}, {
  "atoll": "LH",
  "type": "Islands",
  "name": "Govvaafushi",
  "alt_name": "null",
  "lat": "5.357222222222222",
  "lon": "73.65861111111111",
  "flag_1": "U",
  "flag_2": null
}, {
  "atoll": "LH",
  "type": "Islands",
  "name": "Hinnavaru",
  "alt_name": "null",
  "lat": "5.491944444",
  "lon": "73.41222222",
  "flag_1": "I",
  "flag_2": null
}, {
  "atoll": "LH",
  "type": "Islands",
  "name": "Hiriyaadhoo",
  "alt_name": "null",
  "lat": "5.4125",
  "lon": "73.64388889",
  "flag_1": "U",
  "flag_2": null
}, {
  "atoll": "LH",
  "type": "Islands",
  "name": "Hudhufushi",
  "alt_name": "null",
  "lat": "5.361944444",
  "lon": "73.65388889",
  "flag_1": "PR",
  "flag_2": null
}, {
  "atoll": "LH",
  "type": "Islands",
  "name": "Huravalhi",
  "alt_name": "null",
  "lat": "5.520833333",
  "lon": "73.44166667",
  "flag_1": "R",
  "flag_2": null
}, {
  "atoll": "LH",
  "type": "Islands",
  "name": "Innahuraa",
  "alt_name": "null",
  "lat": "5.350277778",
  "lon": "73.65416667",
  "flag_1": "U",
  "flag_2": null
}, {
  "atoll": "LH",
  "type": "Islands",
  "name": "Kalhumanjehuraa",
  "alt_name": "null",
  "lat": "5.554444444",
  "lon": "73.48277777777778",
  "flag_1": "U",
  "flag_2": null
}, {
  "atoll": "LH",
  "type": "Islands",
  "name": "Kanifushi",
  "alt_name": "null",
  "lat": "5.363888888888889",
  "lon": "73.3325",
  "flag_1": "R",
  "flag_2": null
}, {
  "atoll": "LH",
  "type": "Islands",
  "name": "Kanuhuraa",
  "alt_name": "null",
  "lat": "5.5325",
  "lon": "73.50638889",
  "flag_1": "R",
  "flag_2": null
}, {
  "atoll": "LH",
  "type": "Islands",
  "name": "Komandoo",
  "alt_name": "null",
  "lat": "5.493333333",
  "lon": "73.42416667",
  "flag_1": "R",
  "flag_2": null
}, {
  "atoll": "LH",
  "type": "Islands",
  "name": "Kudadhoo",
  "alt_name": "null",
  "lat": "5.5025",
  "lon": "73.43388888888889",
  "flag_1": "U",
  "flag_2": null
}, {
  "atoll": "LH",
  "type": "Islands",
  "name": "Kurehdhoo",
  "alt_name": "null",
  "lat": "5.549722222",
  "lon": "73.46583333",
  "flag_1": "R",
  "flag_2": null
}, {
  "atoll": "LH",
  "type": "Islands",
  "name": "Kurendhoo",
  "alt_name": "null",
  "lat": "5.333888889",
  "lon": "73.46361111",
  "flag_1": "I",
  "flag_2": null
}, {
  "atoll": "LH",
  "type": "Islands",
  "name": "Lhohi IND)",
  "alt_name": "null",
  "lat": "5.321388889",
  "lon": "73.47277778",
  "flag_1": "U",
  "flag_2": null
}, {
  "atoll": "LH",
  "type": "Islands",
  "name": "Lhossalafushi",
  "alt_name": "null",
  "lat": "5.3075",
  "lon": "73.48277778",
  "flag_1": "U",
  "flag_2": null
}, {
  "atoll": "LH",
  "type": "Islands",
  "name": "Maabinhuraaa",
  "alt_name": "null",
  "lat": "5.336944444",
  "lon": "73.65194444",
  "flag_1": "U",
  "flag_2": null
}, {
  "atoll": "LH",
  "type": "Islands",
  "name": "Maafilaafushi",
  "alt_name": "null",
  "lat": "5.3625",
  "lon": "73.41611111",
  "flag_1": "I",
  "flag_2": null
}, {
  "atoll": "LH",
  "type": "Islands",
  "name": "Maakoa",
  "alt_name": "null",
  "lat": "5.357222222",
  "lon": "73.43027778",
  "flag_1": "U",
  "flag_2": null
}, {
  "atoll": "LH",
  "type": "Islands",
  "name": "Madhiriguraidhoo",
  "alt_name": "null",
  "lat": "5.469166667",
  "lon": "73.56",
  "flag_1": "R",
  "flag_2": null
}, {
  "atoll": "LH",
  "type": "Islands",
  "name": "Madivaru",
  "alt_name": "null",
  "lat": "5.458888889",
  "lon": "73.37027778",
  "flag_1": "U",
  "flag_2": null
}, {
  "atoll": "LH",
  "type": "Islands",
  "name": "Maduvvari",
  "alt_name": "null",
  "lat": "5.284722222",
  "lon": "73.50194444",
  "flag_1": "U",
  "flag_2": "IND"
}, {
  "atoll": "LH",
  "type": "Islands",
  "name": "Maidhoo",
  "alt_name": "null",
  "lat": "5.3975",
  "lon": "73.64861111",
  "flag_1": "U",
  "flag_2": null
}, {
  "atoll": "LH",
  "type": "Islands",
  "name": "Mas leggihuraa",
  "alt_name": "null",
  "lat": "5.543611111",
  "lon": "73.50083333",
  "flag_1": "U",
  "flag_2": null
}, {
  "atoll": "LH",
  "type": "Islands",
  "name": "Medha adihuraa",
  "alt_name": "null",
  "lat": "5.540833333",
  "lon": "73.50277778",
  "flag_1": "R",
  "flag_2": null
}, {
  "atoll": "LH",
  "type": "Islands",
  "name": "Medhafushi",
  "alt_name": "null",
  "lat": "5.355555556",
  "lon": "73.42666667",
  "flag_1": "U",
  "flag_2": null
}, {
  "atoll": "LH",
  "type": "Islands",
  "name": "Meedhaahuraa",
  "alt_name": "null",
  "lat": "5.369166666666667",
  "lon": "73.4075",
  "flag_1": "U",
  "flag_2": null
}, {
  "atoll": "LH",
  "type": "Islands",
  "name": "Meyyafushi",
  "alt_name": "null",
  "lat": "5.441111111",
  "lon": "73.60805556",
  "flag_1": "U",
  "flag_2": null
}, {
  "atoll": "LH",
  "type": "Islands",
  "name": "Naifaru",
  "alt_name": "null",
  "lat": "5.444444444",
  "lon": "73.365",
  "flag_1": "I",
  "flag_2": null
}, {
  "atoll": "LH",
  "type": "Islands",
  "name": "Olhuvelifushi",
  "alt_name": "null",
  "lat": "5.278055556",
  "lon": "73.60638889",
  "flag_1": "I",
  "flag_2": null
}, {
  "atoll": "LH",
  "type": "Islands",
  "name": "Ookolhufinolhu",
  "alt_name": "null",
  "lat": "5.281666667",
  "lon": "73.6225",
  "flag_1": "U",
  "flag_2": null
}, {
  "atoll": "LH",
  "type": "Islands",
  "name": "Rathuruh-huraa",
  "alt_name": "null",
  "lat": "5.4025",
  "lon": "73.64861111",
  "flag_1": "U",
  "flag_2": null
}, {
  "atoll": "LH",
  "type": "Islands",
  "name": "Sehlhifushi",
  "alt_name": "null",
  "lat": "5.423055555555556",
  "lon": "73.64",
  "flag_1": "U",
  "flag_2": null
}, {
  "atoll": "LH",
  "type": "Islands",
  "name": "Thilamaafushi",
  "alt_name": "null",
  "lat": "5.273055556",
  "lon": "73.58694444",
  "flag_1": "U",
  "flag_2": null
}, {
  "atoll": "LH",
  "type": "Islands",
  "name": "Varihuraa",
  "alt_name": "null",
  "lat": "5.303333333",
  "lon": "73.48805556",
  "flag_1": "U",
  "flag_2": null
}, {
  "atoll": "LH",
  "type": "Islands",
  "name": "Vavvaru",
  "alt_name": "null",
  "lat": "5.4175",
  "lon": "73.35416667",
  "flag_1": "U",
  "flag_2": null
}, {
  "atoll": "LH",
  "type": "Islands",
  "name": "Veligan'du",
  "alt_name": "null",
  "lat": "5.528333333",
  "lon": "73.4375",
  "flag_1": "U",
  "flag_2": null
}, {
  "atoll": "LH",
  "type": "Islands",
  "name": "Veyvah",
  "alt_name": "null",
  "lat": "5.426111111111111",
  "lon": "73.36055556",
  "flag_1": "R",
  "flag_2": null
}, {
  "atoll": "LH",
  "type": "Islands",
  "name": "Vihafarufinolhu",
  "alt_name": "null",
  "lat": "5.455555556",
  "lon": "73.58222222222221",
  "flag_1": "U",
  "flag_2": null
}, {
  "atoll": "K",
  "type": "Islands",
  "name": "Aarah",
  "alt_name": "null",
  "lat": "4.23",
  "lon": "73.49444444",
  "flag_1": "U",
  "flag_2": null
}, {
  "atoll": "K",
  "type": "Islands",
  "name": "Akirifushi",
  "alt_name": "null",
  "lat": "4.6375",
  "lon": "73.40055556",
  "flag_1": "R",
  "flag_2": null
}, {
  "atoll": "K",
  "type": "Islands",
  "name": "Asdhoo",
  "alt_name": "null",
  "lat": "4.466111111",
  "lon": "73.66111111",
  "flag_1": "R",
  "flag_2": null
}, {
  "atoll": "K",
  "type": "Islands",
  "name": "Baros",
  "alt_name": "null",
  "lat": "4.284722222",
  "lon": "73.42722222",
  "flag_1": "R",
  "flag_2": null
}, {
  "atoll": "K",
  "type": "Islands",
  "name": "Biyaadhoo",
  "alt_name": "null",
  "lat": "3.921944444",
  "lon": "73.45638889",
  "flag_1": "R",
  "flag_2": null
}, {
  "atoll": "K",
  "type": "Islands",
  "name": "Boduban'dos",
  "alt_name": "null",
  "lat": "4.269444444",
  "lon": "73.49138889",
  "flag_1": "R",
  "flag_2": null
}, {
  "atoll": "K",
  "type": "Islands",
  "name": "Bodufinolhu",
  "alt_name": "null",
  "lat": "3.8575",
  "lon": "73.45638889",
  "flag_1": "R",
  "flag_2": null
}, {
  "atoll": "K",
  "type": "Islands",
  "name": "Boduhithi",
  "alt_name": "null",
  "lat": "4.430277778",
  "lon": "73.38444444",
  "flag_1": "R",
  "flag_2": null
}, {
  "atoll": "K",
  "type": "Islands",
  "name": "Boduhuraa",
  "alt_name": "null",
  "lat": "3.967222222",
  "lon": "73.50527778",
  "flag_1": "R",
  "flag_2": null
}, {
  "atoll": "K",
  "type": "Islands",
  "name": "Bolifushi",
  "alt_name": "null",
  "lat": "4.095833333",
  "lon": "73.40138889",
  "flag_1": "R",
  "flag_2": null
}, {
  "atoll": "K",
  "type": "Islands",
  "name": "Dhiffushi",
  "alt_name": "null",
  "lat": "4.441944444",
  "lon": "73.71361111",
  "flag_1": "I",
  "flag_2": null
}, {
  "atoll": "K",
  "type": "Islands",
  "name": "Dhigufinolhu",
  "alt_name": "null",
  "lat": "3.972222222",
  "lon": "73.50222222",
  "flag_1": "R",
  "flag_2": null
}, {
  "atoll": "K",
  "type": "Islands",
  "name": "Dhoonidhoo",
  "alt_name": "null",
  "lat": "4.196944444",
  "lon": "73.51361111",
  "flag_1": "U",
  "flag_2": null
}, {
  "atoll": "K",
  "type": "Islands",
  "name": "En'boodhoo",
  "alt_name": "null",
  "lat": "4.083888889",
  "lon": "73.51194444",
  "flag_1": "R",
  "flag_2": null
}, {
  "atoll": "K",
  "type": "Islands",
  "name": "En'boodhoofinolhu",
  "alt_name": "null",
  "lat": "4.103055556",
  "lon": "73.52527778",
  "flag_1": "R",
  "flag_2": null
}, {
  "atoll": "K",
  "type": "Islands",
  "name": "Eriadhoo",
  "alt_name": "null",
  "lat": "4.59",
  "lon": "73.41444444",
  "flag_1": "R",
  "flag_2": null
}, {
  "atoll": "K",
  "type": "Islands",
  "name": "Erruh-huraa",
  "alt_name": "null",
  "lat": "3.814722222",
  "lon": "73.41611111",
  "flag_1": "R",
  "flag_2": null
}, {
  "atoll": "K",
  "type": "Islands",
  "name": "Farukolhufushi",
  "alt_name": "null",
  "lat": "4.230833333",
  "lon": "73.54388889",
  "flag_1": "R",
  "flag_2": null
}, {
  "atoll": "K",
  "type": "Islands",
  "name": "Feydhoofinolhu",
  "alt_name": "null",
  "lat": "4.2138888888888895",
  "lon": "73.48555555555555",
  "flag_1": "R",
  "flag_2": null
}, {
  "atoll": "K",
  "type": "Islands",
  "name": "Fihaalhohi",
  "alt_name": "null",
  "lat": "3.877222222",
  "lon": "73.36694444",
  "flag_1": "R",
  "flag_2": null
}, {
  "atoll": "K",
  "type": "Islands",
  "name": "Fonadhoo",
  "alt_name": "null",
  "lat": "4.183611111",
  "lon": "73.51777778",
  "flag_1": "U",
  "flag_2": null
}, {
  "atoll": "K",
  "type": "Islands",
  "name": "Furanafushi",
  "alt_name": "null",
  "lat": "4.249722222",
  "lon": "73.54555556",
  "flag_1": "R",
  "flag_2": null
}, {
  "atoll": "K",
  "type": "Islands",
  "name": "Gaafaru",
  "alt_name": "null",
  "lat": "4.735833333",
  "lon": "73.5",
  "flag_1": "I",
  "flag_2": null
}, {
  "atoll": "K",
  "type": "Islands",
  "name": "Gaagan'du",
  "alt_name": "Kudahuraa",
  "lat": "4.249444444",
  "lon": "73.53666667",
  "flag_1": "U",
  "flag_2": "IND"
}, {
  "atoll": "K",
  "type": "Islands",
  "name": "Gashurifinolhu",
  "alt_name": "null",
  "lat": "4.361111111",
  "lon": "73.62611111",
  "flag_1": "R",
  "flag_2": null
}, {
  "atoll": "K",
  "type": "Islands",
  "name": "Giraavaru",
  "alt_name": "null",
  "lat": "4.200277778",
  "lon": "73.41277778",
  "flag_1": "R",
  "flag_2": null
}, {
  "atoll": "K",
  "type": "Islands",
  "name": "Girifushi",
  "alt_name": "null",
  "lat": "4.318333333",
  "lon": "73.57833333",
  "flag_1": "U",
  "flag_2": null
}, {
  "atoll": "K",
  "type": "Islands",
  "name": "Gulhi",
  "alt_name": "null",
  "lat": "3.990277778",
  "lon": "73.50888889",
  "flag_1": "I",
  "flag_2": null
}, {
  "atoll": "K",
  "type": "Islands",
  "name": "Gulhigaathuhuraa",
  "alt_name": "null",
  "lat": "3.976666667",
  "lon": "73.50638889",
  "flag_1": "R",
  "flag_2": null
}, {
  "atoll": "K",
  "type": "Islands",
  "name": "Guraidhoo",
  "alt_name": "null",
  "lat": "3.900555556",
  "lon": "73.46805556",
  "flag_1": "I",
  "flag_2": null
}, {
  "atoll": "K",
  "type": "Islands",
  "name": "Helen'geli",
  "alt_name": "null",
  "lat": "4.634444444",
  "lon": "73.56333333",
  "flag_1": "R",
  "flag_2": null
}, {
  "atoll": "K",
  "type": "Islands",
  "name": "Henbadhoo",
  "alt_name": "null",
  "lat": "4.481388889",
  "lon": "73.39305556",
  "flag_1": "R",
  "flag_2": null
}, {
  "atoll": "K",
  "type": "Islands",
  "name": "Hinmafushi",
  "alt_name": "null",
  "lat": "4.308888889",
  "lon": "73.57111111",
  "flag_1": "I",
  "flag_2": null
}, {
  "atoll": "K",
  "type": "Islands",
  "name": "Hulhule H)",
  "alt_name": "AIE,",
  "lat": "4.189166667",
  "lon": "73.52916667",
  "flag_1": "U",
  "flag_2": null
}, {
  "atoll": "K",
  "type": "Islands",
  "name": "Hulhumale'",
  "alt_name": "null",
  "lat": "4.212222222",
  "lon": "73.54027778",
  "flag_1": "I",
  "flag_2": null
}, {
  "atoll": "K",
  "type": "Islands",
  "name": "Huraa",
  "alt_name": "null",
  "lat": "4.333611111",
  "lon": "73.60083333",
  "flag_1": "I",
  "flag_2": null
}, {
  "atoll": "K",
  "type": "Islands",
  "name": "Ihuru",
  "alt_name": "null",
  "lat": "4.306666667",
  "lon": "73.41583333",
  "flag_1": "R",
  "flag_2": null
}, {
  "atoll": "K",
  "type": "Islands",
  "name": "Kaashidhoo",
  "alt_name": "null",
  "lat": "4.955555556",
  "lon": "73.46111111",
  "flag_1": "I",
  "flag_2": null
}, {
  "atoll": "K",
  "type": "Islands",
  "name": "Kagi",
  "alt_name": "null",
  "lat": "4.676944444",
  "lon": "73.50083333",
  "flag_1": "R",
  "flag_2": null
}, {
  "atoll": "K",
  "type": "Islands",
  "name": "Kalhuhuraa",
  "alt_name": "null",
  "lat": "4.009444444444444",
  "lon": "73.37277777777777",
  "flag_1": "U",
  "flag_2": null
}, {
  "atoll": "K",
  "type": "Islands",
  "name": "Kan'doomaafushi",
  "alt_name": "null",
  "lat": "3.903333333",
  "lon": "73.47333333",
  "flag_1": "R",
  "flag_2": null
}, {
  "atoll": "K",
  "type": "Islands",
  "name": "Kan'duoiygiri",
  "alt_name": "null",
  "lat": "4.257777778",
  "lon": "73.54055556",
  "flag_1": "U",
  "flag_2": "IND"
}, {
  "atoll": "K",
  "type": "Islands",
  "name": "Kanifinolhu",
  "alt_name": "null",
  "lat": "4.343333333",
  "lon": "73.60805556",
  "flag_1": "R",
  "flag_2": null
}, {
  "atoll": "K",
  "type": "Islands",
  "name": "Kanuoiyhuraa",
  "alt_name": "null",
  "lat": "4.318333333",
  "lon": "73.59166667",
  "flag_1": "R",
  "flag_2": null
}, {
  "atoll": "K",
  "type": "Islands",
  "name": "Kohdhipparu",
  "alt_name": "null",
  "lat": "4.260277778",
  "lon": "73.38055556",
  "flag_1": "R",
  "flag_2": null
}, {
  "atoll": "K",
  "type": "Islands",
  "name": "Kudaban'dos",
  "alt_name": "null",
  "lat": "4.263611111",
  "lon": "73.49972222",
  "flag_1": "R",
  "flag_2": null
}, {
  "atoll": "K",
  "type": "Islands",
  "name": "Kudafinolhu",
  "alt_name": "null",
  "lat": "3.865",
  "lon": "73.45833333",
  "flag_1": "R",
  "flag_2": null
}, {
  "atoll": "K",
  "type": "Islands",
  "name": "Kudahithi",
  "alt_name": "null",
  "lat": "4.416944444",
  "lon": "73.38",
  "flag_1": "R",
  "flag_2": null
}, {
  "atoll": "K",
  "type": "Islands",
  "name": "Kudahuraa",
  "alt_name": "null",
  "lat": "4.328055555555555",
  "lon": "73.5975",
  "flag_1": "R",
  "flag_2": null
}, {
  "atoll": "K",
  "type": "Islands",
  "name": "Lankanfinolhu",
  "alt_name": "null",
  "lat": "4.285",
  "lon": "73.55361111",
  "flag_1": "R",
  "flag_2": null
}, {
  "atoll": "K",
  "type": "Islands",
  "name": "Lankanfushi",
  "alt_name": "null",
  "lat": "4.294722222",
  "lon": "73.55805556",
  "flag_1": "R",
  "flag_2": null
}, {
  "atoll": "K",
  "type": "Islands",
  "name": "Lhohifushi",
  "alt_name": "null",
  "lat": "4.350555556",
  "lon": "73.61805556",
  "flag_1": "R",
  "flag_2": null
}, {
  "atoll": "K",
  "type": "Islands",
  "name": "Lhosfushi",
  "alt_name": "null",
  "lat": "3.896944444",
  "lon": "73.46972222",
  "flag_1": "U",
  "flag_2": null
}, {
  "atoll": "K",
  "type": "Islands",
  "name": "Maadhoo",
  "alt_name": "null",
  "lat": "3.870833333",
  "lon": "73.45861111",
  "flag_1": "R",
  "flag_2": null
}, {
  "atoll": "K",
  "type": "Islands",
  "name": "Maafushi",
  "alt_name": "null",
  "lat": "3.940555556",
  "lon": "73.48944444",
  "flag_1": "I",
  "flag_2": null
}, {
  "atoll": "K",
  "type": "Islands",
  "name": "Madivaru",
  "alt_name": "null",
  "lat": "4.500555556",
  "lon": "73.36805556",
  "flag_1": "R",
  "flag_2": null
}, {
  "atoll": "K",
  "type": "Islands",
  "name": "Mahaana elhihuraa",
  "alt_name": "null",
  "lat": "3.811944444",
  "lon": "73.41138889",
  "flag_1": "R",
  "flag_2": null
}, {
  "atoll": "K",
  "type": "Islands",
  "name": "Maifalhuhuraa",
  "alt_name": "null",
  "lat": "4.63",
  "lon": "73.57055556",
  "flag_1": "U",
  "flag_2": null
}, {
  "atoll": "K",
  "type": "Islands",
  "name": "Makundhoo",
  "alt_name": "null",
  "lat": "4.5425",
  "lon": "73.40555556",
  "flag_1": "R",
  "flag_2": null
}, {
  "atoll": "K",
  "type": "Islands",
  "name": "Makunufushi",
  "alt_name": "null",
  "lat": "3.917777778",
  "lon": "73.46972222",
  "flag_1": "R",
  "flag_2": null
}, {
  "atoll": "K",
  "type": "Islands",
  "name": "Male'",
  "alt_name": "",
  "lat": "4.174166667",
  "lon": "73.50972222",
  "flag_1": "I",
  "flag_2": null
}, {
  "atoll": "K",
  "type": "Islands",
  "name": "Maniyafushi [IND]",
  "alt_name": "null",
  "lat": "4.055833333",
  "lon": "73.41111111",
  "flag_1": "U",
  "flag_2": null
}, {
  "atoll": "K",
  "type": "Islands",
  "name": "Medhufinolhu",
  "alt_name": "null",
  "lat": "4.513888889",
  "lon": "73.36916667",
  "flag_1": "R",
  "flag_2": null
}, {
  "atoll": "K",
  "type": "Islands",
  "name": "Meerufenfushi",
  "alt_name": "null",
  "lat": "4.453611111",
  "lon": "73.71666667",
  "flag_1": "R",
  "flag_2": null
}, {
  "atoll": "K",
  "type": "Islands",
  "name": "Nakahchaafushi",
  "alt_name": "null",
  "lat": "4.368333333",
  "lon": "73.37",
  "flag_1": "R",
  "flag_2": null
}, {
  "atoll": "K",
  "type": "Islands",
  "name": "Olhigan'dufinolhu",
  "alt_name": "null",
  "lat": "3.811666667",
  "lon": "73.41777778",
  "flag_1": "R",
  "flag_2": null
}, {
  "atoll": "K",
  "type": "Islands",
  "name": "Olhuhali",
  "alt_name": "null",
  "lat": "4.689722222",
  "lon": "73.45111111",
  "flag_1": "R",
  "flag_2": null
}, {
  "atoll": "K",
  "type": "Islands",
  "name": "Olhuveli",
  "alt_name": "null",
  "lat": "3.850277778",
  "lon": "73.455",
  "flag_1": "R",
  "flag_2": null
}, {
  "atoll": "K",
  "type": "Islands",
  "name": "Rannaalhi",
  "alt_name": "null",
  "lat": "3.903055556",
  "lon": "73.3575",
  "flag_1": "R",
  "flag_2": null
}, {
  "atoll": "K",
  "type": "Islands",
  "name": "Rasfari",
  "alt_name": "null",
  "lat": "4.394444444",
  "lon": "73.35138889",
  "flag_1": "U",
  "flag_2": null
}, {
  "atoll": "K",
  "type": "Islands",
  "name": "Than'burudhoo",
  "alt_name": "null",
  "lat": "4.315277778",
  "lon": "73.58416667",
  "flag_1": "R",
  "flag_2": null
}, {
  "atoll": "K",
  "type": "Islands",
  "name": "Thilafushi",
  "alt_name": "null",
  "lat": "4.183333333",
  "lon": "73.44555556",
  "flag_1": "IND",
  "flag_2": null
}, {
  "atoll": "K",
  "type": "Islands",
  "name": "Thulhaagiri",
  "alt_name": "null",
  "lat": "4.311388889",
  "lon": "73.48722222",
  "flag_1": "R",
  "flag_2": null
}, {
  "atoll": "K",
  "type": "Islands",
  "name": "Thulusdhoo",
  "alt_name": "null",
  "lat": "4.373888889",
  "lon": "73.65083333",
  "flag_1": "I",
  "flag_2": null
}, {
  "atoll": "K",
  "type": "Islands",
  "name": "Huraagan'du",
  "alt_name": "null",
  "lat": "4.366111111111111",
  "lon": "73.62222222222222",
  "flag_1": "U",
  "flag_2": null
}, {
  "atoll": "K",
  "type": "Islands",
  "name": "Thun'bafushi",
  "alt_name": "null",
  "lat": "4.589722222",
  "lon": "73.58972222",
  "flag_1": "U",
  "flag_2": "IND"
}, {
  "atoll": "K",
  "type": "Islands",
  "name": "Vaadhoo",
  "alt_name": "null",
  "lat": "4.123888889",
  "lon": "73.45722222",
  "flag_1": "R",
  "flag_2": null
}, {
  "atoll": "K",
  "type": "Islands",
  "name": "Vaagali",
  "alt_name": "null",
  "lat": "3.948333333",
  "lon": "73.35611111",
  "flag_1": "R",
  "flag_2": null
}, {
  "atoll": "K",
  "type": "Islands",
  "name": "Vabbinfaru",
  "alt_name": "null",
  "lat": "4.309722222",
  "lon": "73.42388889",
  "flag_1": "R",
  "flag_2": null
}, {
  "atoll": "K",
  "type": "Islands",
  "name": "Vabboahuraa",
  "alt_name": "IRD",
  "lat": "4.319166667",
  "lon": "73.59611111",
  "flag_1": "U",
  "flag_2": null
}, {
  "atoll": "K",
  "type": "Islands",
  "name": "Vammaafushi",
  "alt_name": "null",
  "lat": "3.948611111",
  "lon": "73.49611111",
  "flag_1": "U",
  "flag_2": null
}, {
  "atoll": "K",
  "type": "Islands",
  "name": "Velassaru",
  "alt_name": "null",
  "lat": "4.121388889",
  "lon": "73.43694444",
  "flag_1": "R",
  "flag_2": null
}, {
  "atoll": "K",
  "type": "Islands",
  "name": "Veligan'duhuraa",
  "alt_name": "null",
  "lat": "3.971388889",
  "lon": "73.50638889",
  "flag_1": "R",
  "flag_2": null
}, {
  "atoll": "K",
  "type": "Islands",
  "name": "Vihamanaafushi",
  "alt_name": "null",
  "lat": "4.226666667",
  "lon": "73.51972222",
  "flag_1": "R",
  "flag_2": null
}, {
  "atoll": "K",
  "type": "Islands",
  "name": "Vilin'gili mathidhahuraa",
  "alt_name": "null",
  "lat": "4.376944444",
  "lon": "73.66277778",
  "flag_1": "R",
  "flag_2": null
}, {
  "atoll": "K",
  "type": "Islands",
  "name": "Vilingili",
  "alt_name": "null",
  "lat": "4.173055556",
  "lon": "73.48527778",
  "flag_1": "I",
  "flag_2": null
}, {
  "atoll": "K",
  "type": "Islands",
  "name": "Vilivaru",
  "alt_name": "Viligilivaru",
  "lat": "3.914166667",
  "lon": "73.45555556",
  "flag_1": "R",
  "flag_2": null
}, {
  "atoll": "K",
  "type": "Islands",
  "name": "Ziyaaraiyfushi",
  "alt_name": "null",
  "lat": "4.533055556",
  "lon": "73.37222222",
  "flag_1": "R",
  "flag_2": null
}, {
  "atoll": "K",
  "type": "Islands",
  "name": "Udhafinolhu",
  "alt_name": "Aanugandufinolh",
  "lat": "4.305669444444444",
  "lon": "73.5065861111111",
  "flag_1": "R",
  "flag_2": null
}, {
  "atoll": "K",
  "type": "Islands",
  "name": "Dhonmaaga",
  "alt_name": "null",
  "lat": "3.965527777777778",
  "lon": "73.44966666666667",
  "flag_1": "R",
  "flag_2": null
}, {
  "atoll": "K",
  "type": "Islands",
  "name": "Bulhifushi",
  "alt_name": "null",
  "lat": "3.9798055555555556",
  "lon": "73.50115555555556",
  "flag_1": "R",
  "flag_2": null
}, {
  "atoll": "K",
  "type": "Islands",
  "name": "Funfinolhu",
  "alt_name": "null",
  "lat": "3.9762833333333334",
  "lon": "73.50487222222222",
  "flag_1": "R",
  "flag_2": null
}, {
  "atoll": "K",
  "type": "Islands",
  "name": "Noofinolhu",
  "alt_name": "null",
  "lat": "3.9762833333333334",
  "lon": "73.50487222222222",
  "flag_1": "R",
  "flag_2": null
}, {
  "atoll": "K",
  "type": "Islands",
  "name": "Emmafushi",
  "alt_name": "null",
  "lat": "4.1237861111111105",
  "lon": "73.46373333333334",
  "flag_1": "R",
  "flag_2": null
}, {
  "atoll": "K",
  "type": "Islands",
  "name": "Akasdhoo",
  "alt_name": "null",
  "lat": "4.123513888888889",
  "lon": "73.47235",
  "flag_1": "R",
  "flag_2": null
}, {
  "atoll": "K",
  "type": "Islands",
  "name": "Aanugan'du huraa",
  "alt_name": "null",
  "lat": "4.3069444444444445",
  "lon": "73.50108333333333",
  "flag_1": "R",
  "flag_2": null
}, {
  "atoll": "K",
  "type": "Knoll (Thila)",
  "name": "Tholhimaraa huraa",
  "alt_name": "null",
  "lat": "3.8233333333333333",
  "lon": "73.37416666666665",
  "flag_1": "R",
  "flag_2": null
}, {
  "atoll": "K",
  "type": "Lagoon (Falhu)",
  "name": "Dhonfushi",
  "alt_name": "null",
  "lat": "4.608888888888888",
  "lon": "73.40777777777778",
  "flag_1": "R",
  "flag_2": null
}, {
  "atoll": "K",
  "type": "Lagoon (Falhu)",
  "name": "Kanbaashaa",
  "alt_name": "null",
  "lat": "4.621744444444445",
  "lon": "73.39487777777778",
  "flag_1": "R",
  "flag_2": null
}, {
  "atoll": "K",
  "type": "Lagoon (Falhu)",
  "name": "Nashvilu",
  "alt_name": "null",
  "lat": "4.624611111111111",
  "lon": "73.40643333333334",
  "flag_1": "R",
  "flag_2": null
}, {
  "atoll": "K",
  "type": "Lagoon (Falhu)",
  "name": "Hastheem",
  "alt_name": "null",
  "lat": "4.623055555555556",
  "lon": "73.4113888888889",
  "flag_1": "R",
  "flag_2": null
}, {
  "atoll": "K",
  "type": "Lagoon (Falhu)",
  "name": "Maaranfushi",
  "alt_name": "null",
  "lat": "4.609505555555555",
  "lon": "73.41890000000001",
  "flag_1": "R",
  "flag_2": null
}, {
  "atoll": "K",
  "type": "Sand Bank",
  "name": "Bodubis",
  "alt_name": "null",
  "lat": "4.275555555555555",
  "lon": "73.41472222222222",
  "flag_1": "U",
  "flag_2": null
}, {
  "atoll": "K",
  "type": "Sand Bank",
  "name": "Kudabis",
  "alt_name": "null",
  "lat": "4.2716666666666665",
  "lon": "73.38194444444444",
  "flag_1": "U",
  "flag_2": null
}, {
  "atoll": "K",
  "type": "Sand Bank",
  "name": "Kohdhipparu finolhu",
  "alt_name": "null",
  "lat": "4.248888888888889",
  "lon": "73.37805555555555",
  "flag_1": "U",
  "flag_2": null
}, {
  "atoll": "K",
  "type": "Sand Bank",
  "name": "Ithaafinolhu",
  "alt_name": "null",
  "lat": "4.000244444444444",
  "lon": "73.39164166666667",
  "flag_1": null,
  "flag_2": null
}, {
  "atoll": "AA",
  "type": "Islands",
  "name": "Alikoirah",
  "alt_name": "null",
  "lat": "3.943333333",
  "lon": "72.88027778",
  "flag_1": "R",
  "flag_2": null
}, {
  "atoll": "AA",
  "type": "Islands",
  "name": "Bathalaa",
  "alt_name": "null",
  "lat": "4.070277778",
  "lon": "72.94527778",
  "flag_1": "R",
  "flag_2": null
}, {
  "atoll": "AA",
  "type": "Islands",
  "name": "Bodufolhudhoo",
  "alt_name": "null",
  "lat": "4.185277778",
  "lon": "72.77305556",
  "flag_1": "I",
  "flag_2": null
}, {
  "atoll": "AA",
  "type": "Islands",
  "name": "Ellaidhoo",
  "alt_name": "null",
  "lat": "4.006111111",
  "lon": "72.94888889",
  "flag_1": "R",
  "flag_2": null
}, {
  "atoll": "AA",
  "type": "Islands",
  "name": "Etheremadivaru",
  "alt_name": "null",
  "lat": "4.118611111",
  "lon": "72.93777778",
  "flag_1": "R",
  "flag_2": null
}, {
  "atoll": "AA",
  "type": "Islands",
  "name": "Feridhoo",
  "alt_name": "null",
  "lat": "4.050833333",
  "lon": "72.72527778",
  "flag_1": "I",
  "flag_2": null
}, {
  "atoll": "AA",
  "type": "Islands",
  "name": "Fesdhoo",
  "alt_name": "null",
  "lat": "4.006666667",
  "lon": "72.81083333",
  "flag_1": "R",
  "flag_2": null
}, {
  "atoll": "AA",
  "type": "Islands",
  "name": "Fusfinolhu",
  "alt_name": "null",
  "lat": "4.018333333",
  "lon": "72.95833333",
  "flag_1": "U",
  "flag_2": null
}, {
  "atoll": "AA",
  "type": "Islands",
  "name": "Fushi",
  "alt_name": "null",
  "lat": "4.2155555555555555",
  "lon": "72.88361111111112",
  "flag_1": "U",
  "flag_2": null
}, {
  "atoll": "AA",
  "type": "Islands",
  "name": "Gaagan'du",
  "alt_name": "null",
  "lat": "4.232777777777778",
  "lon": "72.865",
  "flag_1": "U",
  "flag_2": null
}, {
  "atoll": "AA",
  "type": "Islands",
  "name": "Gaathafushi",
  "alt_name": "null",
  "lat": "4.023333333",
  "lon": "72.81055556",
  "flag_1": "R",
  "flag_2": null
}, {
  "atoll": "AA",
  "type": "Islands",
  "name": "Gangehi",
  "alt_name": "null",
  "lat": "4.22",
  "lon": "72.755",
  "flag_1": "R",
  "flag_2": null
}, {
  "atoll": "AA",
  "type": "Islands",
  "name": "Halaveli",
  "alt_name": "null",
  "lat": "4.038055556",
  "lon": "72.91916667",
  "flag_1": "R",
  "flag_2": null
}, {
  "atoll": "AA",
  "type": "Islands",
  "name": "Himendhoo",
  "alt_name": "null",
  "lat": "3.920833333",
  "lon": "72.74388889",
  "flag_1": "I",
  "flag_2": null
}, {
  "atoll": "AA",
  "type": "Islands",
  "name": "Kan'dholhudoo",
  "alt_name": "null",
  "lat": "4.0025",
  "lon": "72.88138889",
  "flag_1": "R",
  "flag_2": null
}, {
  "atoll": "AA",
  "type": "Islands",
  "name": "Kudafolhudhoo",
  "alt_name": "null",
  "lat": "4.181111111",
  "lon": "72.76694444",
  "flag_1": "R",
  "flag_2": null
}, {
  "atoll": "AA",
  "type": "Islands",
  "name": "Kuramathi",
  "alt_name": "null",
  "lat": "4.259166667",
  "lon": "72.97916667",
  "flag_1": "R",
  "flag_2": null
}, {
  "atoll": "AA",
  "type": "Islands",
  "name": "Maagau",
  "alt_name": "null",
  "lat": "3.988888889",
  "lon": "72.95694444",
  "flag_1": "R",
  "flag_2": null
}, {
  "atoll": "AA",
  "type": "Islands",
  "name": "Maalhos",
  "alt_name": "null",
  "lat": "3.986944444",
  "lon": "72.71972222",
  "flag_1": "I",
  "flag_2": null
}, {
  "atoll": "AA",
  "type": "Islands",
  "name": "Maayafushi",
  "alt_name": "null",
  "lat": "4.073611111",
  "lon": "72.8875",
  "flag_1": "R",
  "flag_2": null
}, {
  "atoll": "AA",
  "type": "Islands",
  "name": "Madivaru",
  "alt_name": "null",
  "lat": "4.265277778",
  "lon": "73",
  "flag_1": "R",
  "flag_2": null
}, {
  "atoll": "AA",
  "type": "Islands",
  "name": "Madivarufinolhu",
  "alt_name": "null",
  "lat": "4.268611111111111",
  "lon": "73",
  "flag_1": "U",
  "flag_2": null
}, {
  "atoll": "AA",
  "type": "Islands",
  "name": "Madoogali",
  "alt_name": "null",
  "lat": "4.095833333",
  "lon": "72.75277778",
  "flag_1": "R",
  "flag_2": null
}, {
  "atoll": "AA",
  "type": "Islands",
  "name": "Mathivereefinolhu",
  "alt_name": "null",
  "lat": "4.185",
  "lon": "72.75055556",
  "flag_1": "R",
  "flag_2": null
}, {
  "atoll": "AA",
  "type": "Islands",
  "name": "Mathiveri",
  "alt_name": "null",
  "lat": "4.191666667",
  "lon": "72.74611111",
  "flag_1": "I",
  "flag_2": null
}, {
  "atoll": "AA",
  "type": "Islands",
  "name": "Mushimasmigili",
  "alt_name": "null",
  "lat": "3.958888889",
  "lon": "72.91305556",
  "flag_1": "R",
  "flag_2": null
}, {
  "atoll": "AA",
  "type": "Islands",
  "name": "Rasdhoo",
  "alt_name": "null",
  "lat": "4.262777778",
  "lon": "72.99194444",
  "flag_1": "I",
  "flag_2": null
}, {
  "atoll": "AA",
  "type": "Islands",
  "name": "Thoddoo",
  "alt_name": "null",
  "lat": "4.438888888888889",
  "lon": "72.95861111111111",
  "flag_1": "I",
  "flag_2": null
}, {
  "atoll": "AA",
  "type": "Islands",
  "name": "Ukulhas",
  "alt_name": "null",
  "lat": "4.214722222",
  "lon": "72.86388889",
  "flag_1": "I",
  "flag_2": null
}, {
  "atoll": "AA",
  "type": "Islands",
  "name": "Velidhoo",
  "alt_name": "null",
  "lat": "4.194722222",
  "lon": "72.81833333",
  "flag_1": "R",
  "flag_2": null
}, {
  "atoll": "AA",
  "type": "Islands",
  "name": "Veligan'du",
  "alt_name": "null",
  "lat": "4.298888889",
  "lon": "73.01138889",
  "flag_1": "R",
  "flag_2": null
}, {
  "atoll": "AA",
  "type": "Islands",
  "name": "Vihamaafaru",
  "alt_name": "null",
  "lat": "4.121944444",
  "lon": "72.74638889",
  "flag_1": "U",
  "flag_2": "IND"
}, {
  "atoll": "AA",
  "type": "Sand Bank",
  "name": "Dhinnolhufinolhu",
  "alt_name": "null",
  "lat": "4.138333333333334",
  "lon": "72.73305555555555",
  "flag_1": "U",
  "flag_2": null
}, {
  "atoll": "ADH",
  "type": "Islands",
  "name": "Angaagau",
  "alt_name": "null",
  "lat": "3.6525",
  "lon": "72.82166667",
  "flag_1": "R",
  "flag_2": null
}, {
  "atoll": "ADH",
  "type": "Islands",
  "name": "Ariyadhoo",
  "alt_name": "null",
  "lat": "3.475",
  "lon": "72.85472222",
  "flag_1": "U",
  "flag_2": null
}, {
  "atoll": "ADH",
  "type": "Islands",
  "name": "Athurugau",
  "alt_name": "null",
  "lat": "3.886944444",
  "lon": "72.81611111",
  "flag_1": "R",
  "flag_2": null
}, {
  "atoll": "ADH",
  "type": "Islands",
  "name": "Bodufinolhu",
  "alt_name": "null",
  "lat": "3.4941666666666666",
  "lon": "72.7611111111111",
  "flag_1": "R",
  "flag_2": null
}, {
  "atoll": "ADH",
  "type": "Islands",
  "name": "Bodukaashihuraa",
  "alt_name": "null",
  "lat": "3.875833333",
  "lon": "72.95472222",
  "flag_1": "R",
  "flag_2": null
}, {
  "atoll": "ADH",
  "type": "Islands",
  "name": "Bulhalohi",
  "alt_name": "Bulhalafushi",
  "lat": "3.738888889",
  "lon": "72.73166667",
  "flag_1": "U",
  "flag_2": null
}, {
  "atoll": "ADH",
  "type": "Islands",
  "name": "Dhan'gethi",
  "alt_name": "null",
  "lat": "3.6075",
  "lon": "72.95527778",
  "flag_1": "I",
  "flag_2": null
}, {
  "atoll": "ADH",
  "type": "Islands",
  "name": "Dhihdhoo",
  "alt_name": "null",
  "lat": "3.4830555555555556",
  "lon": "72.8775",
  "flag_1": "I",
  "flag_2": null
}, {
  "atoll": "ADH",
  "type": "Islands",
  "name": "Dhihdhoofinolhu",
  "alt_name": "null",
  "lat": "3.498333333",
  "lon": "72.89611111",
  "flag_1": "R",
  "flag_2": null
}, {
  "atoll": "ADH",
  "type": "Islands",
  "name": "Dhiffushi",
  "alt_name": "null",
  "lat": "3.475",
  "lon": "72.82472222",
  "flag_1": "R",
  "flag_2": null
}, {
  "atoll": "ADH",
  "type": "Islands",
  "name": "Dhiggiri",
  "alt_name": "null",
  "lat": "3.858611111",
  "lon": "72.915",
  "flag_1": "U",
  "flag_2": null
}, {
  "atoll": "ADH",
  "type": "Islands",
  "name": "Dhigurah",
  "alt_name": "null",
  "lat": "3.530555556",
  "lon": "72.92583333",
  "flag_1": "I",
  "flag_2": null
}, {
  "atoll": "ADH",
  "type": "Islands",
  "name": "En'boodhoo",
  "alt_name": "null",
  "lat": "3.815",
  "lon": "72.75222222",
  "flag_1": "U",
  "flag_2": null
}, {
  "atoll": "ADH",
  "type": "Islands",
  "name": "Fenfushi",
  "alt_name": "null",
  "lat": "3.489166667",
  "lon": "72.78361111",
  "flag_1": "I",
  "flag_2": null
}, {
  "atoll": "ADH",
  "type": "Islands",
  "name": "Hangnaameedhoo",
  "alt_name": "null",
  "lat": "3.849166667",
  "lon": "72.955",
  "flag_1": "I",
  "flag_2": null
}, {
  "atoll": "ADH",
  "type": "Islands",
  "name": "Heenfaru",
  "alt_name": "null",
  "lat": "3.819444444444444",
  "lon": "72.8286111111111",
  "flag_1": "R",
  "flag_2": null
},